TowerID,RingID,RingType,Place,Place2,PlaceCL,Dedicn,TowerStatus,StatusFirst,BareDedicn,AltName,RingName,Region,County,Country,HistRegion,ISO3166code,Diocese,Lat,Long,Bells,UR,Semitones,Wt,App,Note,Hz,Details,GF,Toilet,Simulator,ExtraInfo,WebPage,Affiliations,NG,Postcode,Practice,OvhaulYr,Contractor,TuneYr,LGrade,BldgID,ChurchCare,CHRAssetID,TowerBase,DoveID,SNLat,SNLong
12574,2575,Full-circle ring,Ab Kettleby,,,S James,,N,S James,,,Leicestershire,Leicestershire,England,Leicestershire,GB,Leicester,52.79858,-0.92747,6,,,974,,G,783.0,C,GF,,,,http://www.abkettlebybells.co.uk/,Leicester Diocesan Guild,SK724228,LE14 3HS,Wed,13 Jan 2016,John Taylor & Co,,II*,1295154,619058,6514,6918,AB KETTLEB,52.79968,-0.92635
17296,7298,Chime,Abberley,,,S Mary,,N,S Mary,,,Worcestershire,Worcestershire,England,Worcestershire,GB,Worcester,52.30949,-2.36569,6,,,1050,,A,879.0,C,,,,,,,SO751679,,,,,,II,1155514,642259,14663,,ABBERLEY,,
17793,9369,Chime,Abberley,,,S Michael,,N,S Michael,,,Worcestershire,Worcestershire,England,Worcestershire,GB,Worcester,52.30838,-2.36297,2,,,,,,,P,,,,,,,SO753678,WR6 6BN,,,,,II*,1082704,642260,14664,,,,
17794,9370,Chime,Abberton,,,S Andrew,,N,S Andrew,,,Essex,Essex,England,Essex,GB,Chelmsford,51.83735,0.89788,2,,,598,,,,P,,,,,,,TL997193,CO5 7NJ,,,,,II*,1110914,608457,2605,,,,
17795,9371,Chime,Abberton,,,S Eadburgha,,N,S Eadburgha,,,Worcestershire,Worcestershire,England,Worcestershire,GB,Worcester,52.17943,-2.01012,2,,,,,,,P,,,,,,,SO994534,WR10 2NR,,,,,II,1242555,642067,14493,,,,
13760,3761,Full-circle ring,Abbess Roding,,,S Edmund K&M,,N,S Edmund K&M,,,Essex,Essex,England,Essex,GB,Chelmsford,51.77958,0.27690,3,u/r,,448,app,E♭,1248.0,C,GF,,,Unringable; ropes fall in a straight line; no slider(s). ,,Essex Association,TL571114,CM5 0PA,,,,,II,1111331,608506,2649,7481,ABBESS ROD,,
16153,6154,Full-circle ring,Abbey Dore,,,S Mary,,N,S Mary,,,Herefordshire,Herefordshire,England,Herefordshire,GB,Hereford,51.96860,-2.89361,6,,,917,,G,798.6,C,,,,Anticlockwise; no mains electricity to provide lighting on stairs or ante chamber to protect bat population. ,http://www.bagleybells.co.uk/towers/herfs.htm#ABBEY_DORE https://hdgb.org/?tower=abbey-dore,Hereford Diocesan Guild,SO387303,HR2 0AA,,27 Oct 2013,John Taylor & Co,,I,1099794,618003,6057,0001,ABBEY DORE,,
17796,9372,Chime,Abbey Hey,,,S George,,N,S George,,,Greater Manchester,Greater Manchester,England,Lancashire,GB,Manchester,53.46574,-2.16269,1,,,,,,,P,,,,,,,SJ892965,M18 8BY,,,,,,,624003,16985,,,,
17797,9373,Chime,Abbey Wood,,,S Michael & All Angels,,N,S Michael & All Angels,,,Greater London,Greater London,England,Kent,GB,Southwark,51.48974,0.11815,1,,,,,,,P,,,,,,,TQ471788,SE2 9DZ,,,,,,,637212,13006,,,,
17798,9374,Chime,Abbeydale,,,S John,,N,S John,,,South Yorkshire,South Yorkshire,England,Derbyshire,GB,Sheffield,53.32579,-1.51742,1,,,173,,,,P,,,,,,,SK322810,,,,,,,,635025,12624,,,,
17800,9376,Chime,Abbeytown,Holmcultram Abbey,,S Mary,,N,S Mary,,,Cumbria,Cumbria,England,Cumberland,GB,Carlisle,54.84538,-3.28292,2,,,454,,,,P,,,,,,,NY177508,CA7 4PX,,,,,I,1144608,607102,1951,,,,
10151,152,Full-circle ring,Abbots Bickington,,,S James,,N,S James,,,Devon,Devon,England,Devon,GB,Exeter,50.89614,-4.29828,3,u/r,,560,app,D,1357.0,P,GF,,,"Unringable; anticlockwise; notes perceived not=nominal/2; tuning: 1,2,4 of 5. ",,,SS384132,EX22 7LQ,,,,,II*,1105113,615234,5052,6922,ABBOTS BIC,,
14443,4444,Full-circle ring,Abbots Bromley,,,S Nicholas,,N,S Nicholas,,,Staffordshire,Staffordshire,England,Staffordshire,GB,Lichfield,52.81844,-1.88389,8,,,1265,,G,776.0,C,,,T,,http://sites.google.com/site/abbotsbromleybellringers/home,Lichfield and Walsall Archdeaconries Society,SK079245,WS15 3DD,Tue 20:00,1977,,,II*,1374461,620067,6835,0002,ABBOTS BRO,52.81826,-1.88254
13781,3782,Full-circle ring,Abbots Langley,,,S Lawrence,,N,S Lawrence,,,Hertfordshire,Hertfordshire,England,Hertfordshire,GB,St Albans,51.70775,-0.41716,6,,,1089,,F♯,,P,,T,,,http://www.hcacr.org.uk/watford/alangley/index.html,Hertford County Association,TL094021,WD5 0AS,Mon,,,,I,1296433,632229,11360,0003,ABBOTS LAN,,
13048,3049,Full-circle ring,Abbots Leigh,,,Holy Trinity,,N,Holy Trinity,,,Somerset,Somerset,England,Somerset,GB,Bristol,51.46323,-2.65736,6,,,1288,app,F♯,746.0,P,,T,,,https://www.bellsgandb.org.uk/cgi-bin/makepage.cgi?b=1#1,Bath and Wells Diocesan Association;Gloucester and Bristol Diocesan Association,ST544740,BS8 3QT,PN: by arrangement,,,,II*,1312353,605063,1369,0004,ABBOTS LEI,,
17344,7346,Chime,Abbots Morton,,,S Peter,,N,S Peter,,,Worcestershire,Worcestershire,England,Worcestershire,GB,Worcester,52.19291,-1.96243,4,,,756,app,A,896.5,C,,,,"Tuning: 1,2,3#,4 of 4. ",,,SP026549,,,1986,Arthur C Berry,,I,1350229,642003,14434,,ABBOTS MOR,,
14528,4529,Full-circle ring,Abbots Ripton,,,S Andrew,,N,S Andrew,,,Cambridgeshire,Cambridgeshire,England,Huntingdonshire,GB,Ely,52.38636,-0.19334,3,,,672,app,B,1022.0,P,GF,,,,https://huntbells.webador.co.uk/towers/3-bell-towers/abbots-ripton,Ely Diocesan Association,TL230780,PE28 2PW,,,,,I,1330505,614152,4645,6891,ABBOTS RIP,,
17801,9377,Chime,Abbotsbury,,,S Mary V,,N,S Mary V,,,Devon,Devon,England,Devon,GB,Exeter,50.53230,-3.61369,2,,,,,,,P,,,,,,,SX857715,TQ12 2NJ,,,,,II*,1256768,615305,5119,,,,
16106,6107,Full-circle ring,Abbotsbury,,,S Nicholas,,N,S Nicholas,,,Dorset,Dorset,England,Dorset,GB,Salisbury,50.66497,-2.59917,6,,,1093,,G♯,822.0,P,,,,,http://www.sdgr.org.uk/branches/dorchester/tower-1,Salisbury Diocesan Guild,SY577852,DT3 4JJ,Wed,1962,John Taylor & Co,1962,I,1305224,634136,12158,0005,ABBOTSBURY,50.66566,-2.59666
13486,3487,Full-circle ring,Abbotsham,,,S Helen,,N,S Helen,,,Devon,Devon,England,Devon,GB,Exeter,51.01557,-4.24735,6,,,1226,,G,772.0,P,GF,,,Ringing temporarily suspended. ,,,SS424264,EX39 5AR,,1992,John Taylor & Co,1992,II*,1104408,615443,5249,0006,ABBOTSHAM,,
11765,1766,Full-circle ring,Abbotskerswell,,,Blessed Virgin Mary,,N,Blessed Virgin Mary,,,Devon,Devon,England,Devon,GB,Exeter,50.50728,-3.61481,6,,,1120,app,G,803.0,P,,,,,https://devonringers.org.uk/towers/tower?DoveID=ABBOTSKERS,Guild of Devonshire Ringers,SX855687,TQ12 5PG,,,,,II*,1334113,615291,5105,0007,ABBOTSKERS,,
13660,3661,Full-circle ring,Abbotsley,,,S Margaret,,N,S Margaret,,,Cambridgeshire,Cambridgeshire,England,Huntingdonshire,GB,Churches Conservation Trust,52.19345,-0.20544,5,u/r,,896,app,A,,P,,,,Bell hung dead: 5; bells not hung: 1-4; unringable; anticlockwise; tuning: 2-6 of 8. ,,Ely Diocesan Association,TL227565,PE19 6UJ,,,,,II*,1210868,614208,4699,0008,ABBOTSLEY,,
15904,5905,Full-circle ring,Abbotts Ann,,,S Mary,,N,S Mary,,,Hampshire,Hampshire,England,Hampshire,GB,Winchester,51.19038,-1.52873,6,,,1098,,F♯,745.5,P,,,,,https://www.wpbells.org/towers/abbotts-ann/,Winchester and Portsmouth Diocesan Guild,SU330435,SP11 7BJ,Thu (alt),,,,I,1228703,641049,14079,0009,ABBOTTS AN,,
17802,9378,Chime,Abdon,,,S Margaret,,N,S Margaret,,,Shropshire,Shropshire,England,Shropshire,GB,Hereford,52.47571,-2.62660,2,,,,,,,P,,,,,,,SO575866,SY7 9HZ,,,,,II*,1383593,618368,6389,,,,
13453,3454,Full-circle ring,Abenhall,,,S Michael,,N,S Michael,,,Gloucestershire,Gloucestershire,England,Gloucestershire,GB,Gloucester,51.85445,-2.47867,3,u/r,,896,app,A♭,,P,GF,,,One bell (or more) cracked or broken; unringable. ,https://www.bellsgandb.org.uk/cgi-bin/makepage.cgi?b=6#141,Gloucester and Bristol Diocesan Association,SO671174,GL17 0DX,,,,,II*,1299146,616048,5496,6489,ABENHALL,,
15542,5543,Full-circle ring,Aberavon,,,S Mary,,N,S Mary,Port Talbot,,"Neath Port Talbot, West Glamorgan, Wales",Neath Port Talbot,Wales,"Glamorgan, Wales",GB,Llandaff,51.59631,-3.78749,8,,,1822,,F♯,725.3,P,,,,County books / DBR info discrepant; tower notice(s) / DBR info discrepant. ,,Llandaff and Monmouth Diocesan Association,SS762901,SA12 6DU,Mon (1st),,,,II,22802,3790,,0010,ABERAVON,,
11708,1709,Full-circle ring,Aberdare,,,S Elvan,,N,S Elvan,,,"Rhondda Cynon Taff, Mid Glamorgan, Wales",Rhondda Cynon Taff,Wales,"Glamorgan, Wales",GB,Llandaff,51.71318,-3.44564,8,,,1817,,E,642.7,P,,T,,Ringing temporarily suspended; tuned to old concert pitch (A=454Hz). ,https://campanologywales.weebly.com/selvans-church-aberdare.html,Llandaff and Monmouth Diocesan Association,SO002025,CF44 7NT,,1935,Gillett & Johnston,,II*,10841,3803,,0011,ABERDARE,51.71284,-3.44570
13827,3828,Full-circle ring,Aberdeen,,Aberdeen Cath,Cath Ch of S Machar,Cath Ch,Y,S Machar,,,"City of Aberdeen, Scotland",City of Aberdeen,Scotland,"Aberdeenshire, Scotland",GB,Church of Scotland,57.16977,-2.10266,8,,,1574,,F♯,723.5,P,,,,,http://www.stmachar.com,Scottish Association,NJ938087,AB24 1RN,Mon,,,1912,A,LB19957,,,0012,ABERDEEN,,
12389,2390,Full-circle ring,Aberdeen,,Aberdeen RC Cath,Cath Ch of S Mary of the Assumption,Cath Ch,Y,S Mary of the Assumption,,,"City of Aberdeen, Scotland",City of Aberdeen,Scotland,"Aberdeenshire, Scotland",GB,Aberdeen,57.14540,-2.10681,8,,,1204,app,A,850.0,P,,,,The ringing bells form part of a 14-bell chime. ,,Scottish Association,NJ936060,AB10 1QS,Thu (with exceptions),1999,Eayre & Smith,,B,LB19962,,,6132,ABERDEENRC,,
17777,9275,Carillon,Aberdeen,,"Aberdeen, S Nicholas Kirk",S Nicholas Kirk,,N,S Nicholas Kirk,,Municipal Carillon,"City of Aberdeen, Scotland",City of Aberdeen,Scotland,"Aberdeenshire, Scotland",GB,Church of Scotland,57.14750,-2.09946,48,,,10078,,G♯,410.0,P,,T,,,https://carillonsbi.org/municipal-carillon-the-kirk-of-st-nicholas/,,NJ940062,AB10 1JP,,,,1954,A,LB19966,,,6531,,,
16446,6447,Full-circle ring,Aberford,,,S Ricarius,,N,S Ricarius,,,West Yorkshire,West Yorkshire,England,Yorkshire,GB,York,53.82881,-1.34408,4,,,588,,B,1010.0,P,GF,T,,,,Yorkshire Association,SE432371,LS25 3BR,,1957,John Taylor & Co,,II,1313204,643160,14862,0013,ABERFORD,,
10227,228,Full-circle ring,Abergavenny,,,S Mary,,N,S Mary,Y Fenni,,"Monmouthshire, Gwent, Wales",Monmouthshire,Wales,"Monmouthshire, Wales",GB,Monmouth,51.82140,-3.01544,10,,,2818,,D,581.5,C,,,,Access to ringing room by two independent routes. ,,Llandaff and Monmouth Diocesan Association,SO301141,NP7 5NE,Mon,,,,I,2373,160,,0014,ABERGAVENN,,
10227,17226,Display bells,Abergavenny,,,S Mary,,N,S Mary,Y Fenni,,"Monmouthshire, Gwent, Wales",Monmouthshire,Wales,"Monmouthshire, Wales",GB,Monmouth,51.82140,-3.01544,1,,,1232,app,,,P,,,,,,Llandaff and Monmouth Diocesan Association,SO301141,NP7 5NE,,,,,I,2373,160,,,,,
10276,277,Full-circle ring,Abergele,,,S Michael,,N,S Michael,,,"Conwy, Clwyd, Wales",Conwy,Wales,"Denbighshire, Wales",GB,St Asaph,53.28527,-3.58366,6,,,993,,A,,P,,,,,,North Wales Association,SH945776,LL22 7AN,Mon,16 Jul 2016,John Taylor & Co,,II*,237,1025,,0015,ABERGELE,,
16770,6771,Full-circle ring,Abilene,,,The Heavenly Rest,,N,The Heavenly Rest,,All Saints Tower,"Texas, United States of America",Texas,United States of America,,US,Northwest Texas,32.44421,-99.74567,6,u/r,,729,,B,987.2,C,,,,Dutch bells; the ringing bells form part of a 25-bell carillon; unringable. ,http://www.towerbells.org/data/TXABILHR.HTM https://www.nagcr.org/towers-and-bands/abilene https://www.heavenlyrestabilene.org/post/ringing-again,North American Guild,,79602,,1991,Eayre & Smith,,,,,,5850,ABILENE,,
15023,5024,Full-circle ring,Abingdon,,"Abingdon, S Helen",S Helen,,N,S Helen,,,Oxfordshire,Oxfordshire,England,Berkshire,GB,Oxford,51.66771,-1.28284,10,,,1797,,F,700.0,C,,T,T,,http://odg.org.uk/towers/abingdon/helen.htm,Oxford Diocesan Guild,SU496967,OX14 5EH,"Tue (1st, 3rd, 5th)",,,,I,1300979,627295,9544,0016,ABINGDONSH,51.66875,-1.28383
17803,9379,Chime,Abingdon,,,S Michael & All Angels,,N,S Michael & All Angels,,,Oxfordshire,Oxfordshire,England,Berkshire,GB,Oxford,51.67132,-1.29123,3,,,260,,,,P,,,,,,,SU491971,OX14 1DS,,2017,Whites of Appleton,,II,1048829,627296,9545,,,,
10628,629,Full-circle ring,Abingdon,,"Abingdon, S Nicolas",S Nicolas,,N,S Nicolas,,,Oxfordshire,Oxfordshire,England,Berkshire,GB,Oxford,51.67024,-1.28093,6,,,830,,B♭,941.5,C,,T,,,http://odg.org.uk/towers/abingdon/nicolas.htm,Oxford Diocesan Guild,SU498970,OX14 3ER,,1933,Gillett & Johnston,,I,1048110,627298,9547,0017,ABINGDONSN,51.67134,-1.27992
17804,9380,Chime,Abinger,,,S James,,N,S James,,,Surrey,Surrey,England,Surrey,GB,Guildford,51.20196,-0.40552,6,,,,,C,1045.5,P,,,,Ellacombe apparatus. ,,,TQ114459,RH5 6JD,,,,,II*,1378082,617119,5954,,,,
12544,2545,Full-circle ring,Abington,,,S Peter & S Paul,,N,S Peter & S Paul,Northampton,,Northamptonshire,Northamptonshire,England,Northamptonshire,GB,Peterborough,52.24614,-0.86585,6,,,1172,,A,895.0,P,GF,T,,,,Peterborough Diocesan Guild,SP775614,NN3 3AB,,2006,John Taylor & Co,,II*,1189663,628105,10181,6535,NORTHAMP10,,
17805,9381,Chime,Abington Pigotts,,,S Michael & All Angels,,N,S Michael & All Angels,,,Cambridgeshire,Cambridgeshire,England,Cambridgeshire,GB,Ely,52.08496,-0.09774,3,,,495,,D,,P,,,,,https://cambridgeringing.info/Towers/tower.php?id=1,Ely Diocesan Association,TL304446,SG8 0SH,,,,,II*,1128297,614133,4626,,,,
17805,17171,Full-circle ring,Abington Pigotts,,,S Michael & All Angels,,N,S Michael & All Angels,,,Cambridgeshire,Cambridgeshire,England,Cambridgeshire,GB,Ely,52.08496,-0.09774,1,,,598,,C,,P,,,,,https://cambridgeringing.info/Towers/tower.php?id=1,Ely Diocesan Association,TL304446,SG8 0SH,,,,,II*,1128297,614133,4626,,,,
17806,9382,Chime,Abram,,,S John,,N,S John,,,Greater Manchester,Greater Manchester,England,Lancashire,GB,Liverpool,53.50968,-2.59373,1,,,594,,,,P,,,,,,,SD607016,WN2 5RQ,,,,,,,622226,7511,,,,
15632,5633,Full-circle ring,Abson,,,S James Gt,,N,S James Gt,,,Gloucestershire,Gloucestershire,England,Gloucestershire,GB,Bristol,51.47175,-2.42593,6,,,1172,,F♯,744.0,P,,T,,,http://southglosbells.wordpress.com/abson-s-james-gt/ https://www.bellsgandb.org.uk/cgi-bin/makepage.cgi?b=2#24 https://www.bristolrural.co.uk/page40.htm,Gloucester and Bristol Diocesan Association,ST705748,BS30 5TT,,1926,Gillett & Johnston,1926,I,1216114,605096,1401,0018,ABSON,,
17807,9383,Full-circle ring,Abthorpe,,,S John Bapt,,N,S John Bapt,,,Northamptonshire,Northamptonshire,England,Northamptonshire,GB,Peterborough,52.11316,-1.05306,1,,,280,app,G♯,,P,GF,,,,,,SP649465,NN12 8QW,,,,,II,1371598,628125,10199,,,,
17809,9385,Chime,Acaster Malbis,,,Holy Trinity,,N,Holy Trinity,,,North Yorkshire,North Yorkshire,England,Yorkshire,GB,York,53.90528,-1.09776,2,,,,,,,P,,,,,,,SE593458,YO19 4SB,,,,,I,1148450,643003,14713,,,,
17810,9386,Chime,Acaster Selby,,,S John,,N,S John,,,North Yorkshire,North Yorkshire,England,Yorkshire,GB,York,53.86135,-1.12816,1,,,170,,,,P,,,,,,,SE574409,YO23 7BP,,,,,II,1316323,643004,14714,,,,
10851,852,Full-circle ring,Accrington,,,S James,,N,S James,,,Lancashire,Lancashire,England,Lancashire,GB,Blackburn,53.75196,-2.36551,12,,,1274,,G,776.0,C,,T,,,http://www.inspirewebdesign.com/ringsof12/tower_details.asp?towerid=1,Lancashire Association,SD759284,BB5 2ER,Fri,,,,II,1072746,603005,880,0019,ACCRINGTN,,
17811,9387,Full-circle ring,Accrington,,,S John,,N,S John,,,Lancashire,Lancashire,England,Lancashire,GB,Blackburn,53.75764,-2.36069,1,,,798,,,,P,,,,,,,SD763290,BB5 6AG,,,,,II,1072742,603007,882,,,,
17574,7576,Chime,Accrington,Baxenden,"Accrington, Baxenden",S John,,N,S John,,,Lancashire,Lancashire,England,Lancashire,GB,Blackburn,53.73479,-2.34690,6,,,1008,app,,,P,,,,,,,SD772265,,,,,,II,1072757,603012,887,,ACCRINGTNB,,
22961,14816,Chime,Accrington,,,S Mary Magdalen,,N,S Mary Magdalen,,,Lancashire,Lancashire,England,Lancashire,GB,Blackburn,53.75825,-2.36900,1,,,,,,,P,,,,,,,SD757291,BB5 1DW,,,,,,,603008,883,,,,
17813,9389,Chime,Accrington,,,S Paul,,N,S Paul,,,Lancashire,Lancashire,England,Lancashire,GB,Blackburn,53.75246,-2.35520,1,,,,,,,P,,,,,,,SD766285,BB5 6RY,,,,,,,603009,884,,,,
11215,1216,Full-circle ring,Achurch,,,S John Bapt,,N,S John Bapt,Thorpe Achurch,,Northamptonshire,Northamptonshire,England,Northamptonshire,GB,Peterborough,52.43662,-0.49905,4,,,565,,C,1045.5,P,,,,3rd (5-1-6) is heavier than tenor. ,,Peterborough Diocesan Guild,TL021831,PE8 5SL,,,,,II*,1040142,628314,10376,0020,ACHURCH,,
17814,9390,Chime,Acklington,,,S John,,N,S John,,,Northumberland,Northumberland,England,Northumberland,GB,Newcastle,55.31061,-1.64352,2,,,,,,,P,,,,,,,NU227018,NE65 9BL,,,,,II,1371111,625169,8529,,,,
17815,9391,Chime,Ackworth,,,All Saints,,N,All Saints,,,West Yorkshire,West Yorkshire,England,Yorkshire,GB,Leeds,53.64039,-1.34094,1,,,,,,,P,,,,Steel bell. ,,,SE436161,WF7 7DQ,,,,,,,646010,13980,,,,
17105,7106,Full-circle ring,Ackworth,,,S Cuthbert,,N,S Cuthbert,High Ackworth,,West Yorkshire,West Yorkshire,England,Yorkshire,GB,Leeds,53.65726,-1.33536,6,,,1568,app,F♯,,P,,,,One bell (or more) from ring unringable: 5th. ,,Yorkshire Association,SE440180,WF7 7EJ,Fri,,,,II*,1313257,646011,13979,0021,ACKWORTH,,
15637,5638,Full-circle ring,Acle,,,S Edmund,,N,S Edmund,,,Norfolk,Norfolk,England,Norfolk,GB,Norwich,52.63720,1.54723,6,,,1050,,G,758.0,P,GF,,,Round tower; tower notice(s) / DBR info discrepant. ,https://ndar.org.uk/towers/acle/ https://churchbellsofnorfolk.weebly.com/acle-st-edmund.html,Norwich Diocesan Association,TG401102,NR13 3DG,,,,,I,1372674,626003,8621,0022,ACLE,,
17816,9392,Chime,Acocks Green,,,S Mary,,N,S Mary,,,West Midlands,West Midlands,England,Worcestershire,GB,Birmingham,52.44766,-1.82499,1,,,,,,,P,,,,,,,SP119833,B27 6QT,,,,,II,1393388,602196,854,,,,
17817,9393,Chime,Acol,,,S Mildred,,N,S Mildred,,,Kent,Kent,England,Kent,GB,Canterbury,51.35384,1.31061,1,,,60,,,,P,,,,,,,TR306668,CT7 0JD,,,,,,,606179,1685,,,,
17818,9394,Chime,Acomb,,,Holy Redeemer,,N,Holy Redeemer,,,North Yorkshire,North Yorkshire,England,Yorkshire,GB,York,53.96611,-1.12454,2,,,326,,E,1317.0,P,,,,,,,SE575525,YO26 6AB,,,,,II,1376606,643638,15297,,,,
13068,3069,Full-circle ring,Acomb,,,S Stephen,,N,S Stephen,,,North Yorkshire,North Yorkshire,England,Yorkshire,GB,York,53.95591,-1.12919,6,,,1230,,F♯,750.0,P,,,,,,Yorkshire Association,SE572514,YO26 5LY,Thu 19:00,,,,II,1256233,643220,14918,0023,YORK  ACOM,,
17820,9396,Chime,Acomb Moor,,,S James the Deacon,,N,S James the Deacon,,,North Yorkshire,North Yorkshire,England,Yorkshire,GB,York,53.93973,-1.12412,1,,,784,,,,P,,,,,,,SE575496,YO24 2RR,,,,,,,643639,15298,,,,
17821,9397,Full-circle ring,Acrise,,,S Martin,,N,S Martin,,,Kent,Kent,England,Kent,GB,Canterbury,51.13734,1.13462,1,u/r,,448,app,,,P,,,,Unringable. ,,,TR193422,CT18 8JZ,,,,,I,1263009,606087,1603,,,,
10019,20,Full-circle ring,Acton,,,S Mary,,N,S Mary,,,Cheshire,Cheshire,England,Cheshire,GB,Chester,53.07369,-2.55139,6,,,1464,,F,685.0,P,,,,,,Chester Diocesan Guild,SJ631530,CW5 8LE,Tue,1996,John Taylor & Co,,I,1330112,609324,3078,0027,ACTON  CHE,,
17822,9398,Chime,Acton,,,S Dunstan,,N,S Dunstan,,,Greater London,Greater London,England,Middlesex,GB,London,51.51292,-0.25798,1,,,280,app,A,,P,,,,,,,TQ209807,W3 7AP,,,,,,,623438,7952,,,,
11032,1033,Full-circle ring,Acton,,,S Mary,,N,S Mary,,,Greater London,Greater London,England,Middlesex,GB,London,51.50780,-0.27224,8,,,1540,app,F,704.0,P,,,,,https://www.bellringing.london/acton-st-mary/,Middlesex County Association and London Diocesan Guild,TQ200801,W3 9NW,,,,,II,1189297,623435,7950,0024,ACTON  LON,,
11817,1818,Full-circle ring,Acton,,,All Saints,,N,All Saints,,,Suffolk,Suffolk,England,Suffolk,GB,St Edmundsbury and Ipswich,52.07307,0.75938,5,,,928,,F♯,750.0,C,GF,T,,Ellacombe apparatus. ,http://www.suffolkbells.org.uk/towers/acton1.php,Suffolk Guild,TL892452,CO10 0BA,,1926,Whitechapel Bell Foundry,,I,1036718,633282,11823,0025,ACTON  SUF,,
17694,7696,Chime,Acton Beauchamp,,,S Giles,,N,S Giles,,,Herefordshire,Herefordshire,England,Worcestershire,GB,Hereford,52.15011,-2.47001,3,,,616,app,C,1033.5,P,GF,,,,,,SO679503,WR6 5AQ,,,,,II*,1082414,618041,6094,6793,ACTON BEAU,,
15604,5605,Full-circle ring,Acton Burnell,,,S Mary,,N,S Mary,,,Shropshire,Shropshire,England,Shropshire,GB,Hereford,52.61318,-2.69027,4,u/r,,602,,G♯,827.0,P,,,,Unringable; Ellacombe apparatus. ,https://hdgb.org/?tower=acton-burnell,Hereford Diocesan Guild,SJ533019,SY5 7PE,,,,,I,1366700,618327,6350,0026,ACTON BURN,,
17823,9399,Chime,Acton Green,,,S Alban,,N,S Alban,,,Greater London,Greater London,England,Middlesex,GB,London,51.50229,-0.26159,1,,,112,app,A,,P,,,,,,,TQ207795,W4 1DL,,,,,,,623436,7951,,,,
17824,9400,Chime,Acton Green,,,S Peter,,N,S Peter,,,Greater London,Greater London,England,Middlesex,GB,London,51.49581,-0.26299,1,,,112,app,,,P,,,,,,,TQ206788,W4 5LG,,,,,,,623437,16976,,,,
17825,9401,Chime,Acton Round,,,S Mary,,N,S Mary,,,Shropshire,Shropshire,England,Shropshire,GB,Hereford,52.55736,-2.54071,2,,,,,,,P,,,,,,,SO634956,WV16 6XG,,,,,II*,1367846,618263,6290,,,,
11624,1625,Full-circle ring,Acton Scott,,,S Margaret,,N,S Margaret,,,Shropshire,Shropshire,England,Shropshire,GB,Hereford,52.50003,-2.80629,3,,,784,app,C,1030.0,C,,,,Tuning: 1-3 of 4. ,,,SO453894,SY6 6QQ,,,,,II*,1383212,618328,6351,6895,ACTON SCOT,,
17265,7267,Chime,Acton Trussell,,,S James,,N,S James,,,Staffordshire,Staffordshire,England,Staffordshire,GB,Lichfield,52.75470,-2.09449,3,,,560,,C,1018.0,C,,,,,,,SJ937174,,,1958,John Taylor & Co,1958,II*,1374077,620047,6817,,ACTON TRUS,,
17826,9402,Chime,Acton Turville,,,S Mary,,N,S Mary,,,Gloucestershire,Gloucestershire,England,Gloucestershire,GB,Gloucester,51.52637,-2.27752,1,,,224,app,,,P,,,,,,,ST808808,GL9 1HL,,,,,II*,1155143,616154,5591,,,,
16659,6660,Full-circle ring,Adbaston,,,S Michael & All Angels,,N,S Michael & All Angels,,,Staffordshire,Staffordshire,England,Staffordshire,GB,Lichfield,52.84821,-2.35467,4,,,784,app,A,888.5,P,GF,,,,,North Staffordshire Association,SJ762279,ST20 0QG,,,,,II*,1116854,620266,7000,0028,ADBASTON,,
17072,7073,Full-circle ring,Adderbury,,,S Mary,,N,S Mary,,,Oxfordshire,Oxfordshire,England,Oxfordshire,GB,Oxford,52.01488,-1.31561,8,,,2702,,D,602.0,P,,T,,,,Oxford Diocesan Guild,SP470353,OX17 3LT,Tue,1927,John Taylor & Co,,I,1200012,627128,9383,0029,ADDERBURY,52.01505,-1.31442
17704,7706,Full-circle ring,Adderley,,,S Peter,,N,S Peter,,,Shropshire,Shropshire,England,Shropshire,GB,Lichfield;Churches Conservation Trust,52.95222,-2.50613,3,u/r,,616,app,C,1022.0,P,GF,,,Unringable; ropes fall in a straight line. ,,,SJ660395,TF9 3TD,,,,,I,1055290,620497,7190,7890,ADDERLEY,,
17827,9404,Chime,Addingham,,,S Michael,,N,S Michael,,,Cumbria,Cumbria,England,Cumberland,GB,Carlisle,54.73793,-2.66261,2,,,,,,,P,,,,,,,NY574383,CA10 1DT,,,,,II*,1144844,607116,1965,,,,
17108,7109,Full-circle ring,Addingham,,,S Peter,,N,S Peter,,,West Yorkshire,West Yorkshire,England,Yorkshire,GB,Leeds,53.94338,-1.87185,6,,,1140,,G,782.0,P,,,,,,Yorkshire Association,SE085497,LS29 0QP,"Wed (2nd, 4th: alternates with Ilkley)",1957,John Taylor & Co,,I,1133457,646012,1212,0030,ADDINGHAM,,
15232,5233,Full-circle ring,Addington,,,S Mary,,N,S Mary,,,Buckinghamshire,Buckinghamshire,England,Buckinghamshire,GB,Oxford,51.94995,-0.92103,3,u/r,,672,app,B♭,951.5,C,GF,,,Unringable; anticlockwise; tuning: 1-3 of 5. ,https://cbucks.odg.org.uk/wordpress/towers/3-bells/addington/,,SP742284,MK18 2JR,,,,,II*,1214530,627680,9909,6871,ADDINGTN B,,
14695,4696,Full-circle ring,Addington,,,S Mary,,N,S Mary,,,Greater London,Greater London,England,Surrey,GB,Southwark,51.35840,-0.03240,6,,,765,,B,987.5,C,,,T,Ellacombe apparatus. ,http://towers.surreybellringers.org.uk/pages/addington-st-mary,Surrey Association,TQ370639,CR0 5AL,Mon 19:00,1956,Gillett & Johnston,,I,1079343,637367,13144,0032,ADDINGTN L,,
16347,6348,Full-circle ring,Addington,,,S Margaret,,N,S Margaret,,,Kent,Kent,England,Kent,GB,Rochester,51.30500,0.37108,4,,,599,,B♭,,P,,T,,Tower notice(s) / DBR info discrepant; 3rd (5-1-18) is heavier than tenor. ,http://kent.lovesguide.com/tower.php?id=1 http://kcacr.org.uk/maidstone-district/towers/towers-details/#Addington,Kent County Association,TQ653588,ME19 5BQ,,1969,Whitechapel Bell Foundry,1969,I,1070567,631158,11027,0031,ADDINGTN K,51.30681,0.37299
17828,9405,Full-circle ring,Addiscombe,,,S Mary Magd,,N,S Mary Magd,,,Greater London,Greater London,England,Surrey,GB,Southwark,51.37746,-0.08278,1,,,558,,C,1037.0,P,,,,,,,TQ335660,CR0 6RY,,,,,II*,1358794,637378,13154,,,,
17829,9406,Chime,Addlestone,,,S Augustine,,N,S Augustine,,,Surrey,Surrey,England,Surrey,GB,Guildford,51.37240,-0.50095,1,,,219,,G♯,820.0,P,,,,,,,TQ044647,,,,,,,,617188,15973,,,,
17225,7227,Chime,Addlestone,,,S Paul,,N,S Paul,,,Surrey,Surrey,England,Surrey,GB,Guildford,51.36881,-0.50244,8,,,382,,E,,P,,,,Baton clavier. ,,,TQ043643,,,,,,,,617187,6018,,ADDLESTONE,,
11106,1107,Full-circle ring,Addlethorpe,,,S Nicholas,,N,S Nicholas,,,Lincolnshire,Lincolnshire,England,Lincolnshire,GB,Lincoln,53.19628,0.32008,6,,,1188,,F,719.0,C,GF,,,,,Lincoln Diocesan Guild,TF550690,PE24 4TA,,1981,John Taylor & Co,,I,1359681,621500,16695,0033,ADDLETHORP,,
17830,9407,Chime,Adel,,,S John Bapt,,N,S John Bapt,,,West Yorkshire,West Yorkshire,England,Yorkshire,GB,Leeds,53.85762,-1.58397,3,,,338,,E♭,,P,,,,Electronic controls. ,,,SE274402,LS16 8DW,,,,2010,I,1255610,646013,10831,,,,
15785,5786,Full-circle ring,Adelaide,,Adelaide RC Cath,Cath Ch of S Francis Xavier,Cath Ch,Y,S Francis Xavier,,,"South Australia, Australia",South Australia,Australia,,AU,Adelaide,-34.92883,138.60127,12,,2#,3193,,D♭,565.5,C,,,,Only limited ringing allowed: call ahead. ,http://www.anzab.org.au/towers.php?tower=SFX http://www.inspirewebdesign.com/ringsof12/tower_details.asp?towerid=14,Australian and New Zealand Association,,,,1996,Local labour/guild/assn,1996,,,,,5988,ADELA   SF,,
16198,6199,Full-circle ring,Adelaide,,Adelaide Cath,Cath Ch of S Peter,Cath Ch,Y,S Peter,,,"South Australia, Australia",South Australia,Australia,,AU,Adelaide,-34.91308,138.59834,8,,,4620,,C,518.0,C,,,,Ringing Centre. ,http://www.anzab.org.au/towers.php?tower=ADE,Australian and New Zealand Association,,,Tue,,,,,,,,5916,ADELA   CA,,
17138,7139,Full-circle ring,Adelaide,Walkerville,"Adelaide, Walkerville",S Andrew,,N,S Andrew,Walkerville,,"South Australia, Australia",South Australia,Australia,,AU,Adelaide,-34.89176,138.61596,6,,,1398,,F♯,743.0,C,,,,,http://www.anzab.org.au/towers.php?tower=WAL,Australian and New Zealand Association,,,,2 Oct 2020,John Taylor & Co,2020,,,,,5919,ADELA WLK,,
15246,5247,Full-circle ring,Adelaide,Prospect,"Adelaide, Prospect",S Cuthbert,,N,S Cuthbert,Prospect,,"South Australia, Australia",South Australia,Australia,,AU,Adelaide,-34.89183,138.59481,8,,,1262,,G,776.0,C,GF,,,Detached tower. ,http://www.anzab.org.au/towers.php?tower=PRO,Australian and New Zealand Association,,,Fri,1971,John Taylor & Co,,,,,,5918,ADELA PRS,,
16422,6423,Full-circle ring,Adelaide,,"Adelaide, Town Hall",Town Hall,,N,Town Hall,,,"South Australia, Australia",South Australia,Australia,,AU,Local Authority (Secular),-34.92613,138.59988,8,,,1525,,F,683.5,C,,,,,http://www.anzab.org.au/towers.php?tower=ATH,Australian and New Zealand Association,,,Mon (monthly: check) 17:30,1981,,,,,,,5917,ADELA   TH,,
17831,9408,Chime,Adeyfield,,,S Barnabas,,N,S Barnabas,,,Hertfordshire,Hertfordshire,England,Hertfordshire,GB,St Albans,51.75557,-0.45049,1,,,,,,,P,,,,,,,TL070074,HP2 4EP,,,,,,,632040,11184,,,,
17832,9409,Chime,Adforton,,,S Andrew,,N,S Andrew,,,Herefordshire,Herefordshire,England,Herefordshire,GB,Hereford,52.33400,-2.87969,1,,,,,,,P,,,,,,,SO401710,SY7 0NE,,,,,II,1349768,618403,6419,,,,
11846,1847,Full-circle ring,Adisham,,,Holy Innocents,,N,Holy Innocents,,,Kent,Kent,England,Kent,GB,Canterbury,51.24401,1.19033,4,u/r,,812,app,B♭,,P,,,,Bell hung dead: 4; bells not hung: 1-3; unringable. ,http://kent.lovesguide.com/tower.php?id=2,Kent County Association,TR227542,CT3 3LH,,,,,I,1123715,606003,1528,0034,ADISHAM,,
13967,3968,Full-circle ring,Adlestrop,,,S Mary Magd,,N,S Mary Magd,,,Gloucestershire,Gloucestershire,England,Gloucestershire,GB,Gloucester,51.94001,-1.64815,6,,,525,,C,1072.0,C,,,,,http://www.bagleybells.co.uk/towers/glos.htm#ADLESTROP https://www.bellsgandb.org.uk/cgi-bin/makepage.cgi?b=8#197,Gloucester and Bristol Diocesan Association,SP242268,GL56 0YN,,27 May 2016,Whitechapel Bell Foundry,2016,II,1341100,616374,5798,0035,ADLESTROP,,
17833,9410,Full-circle ring,Adlingfleet,,,All Saints,,N,All Saints,,,East Riding of Yorkshire,East Riding of Yorkshire,England,Yorkshire,GB,Sheffield,53.67869,-0.72380,1,,,1008,app,,,P,,,,,,,SE843210,DN14 8HX,,,,,I,1083144,635193,12764,,,,
17834,9412,Chime,Adlington,,,S John,,N,S John,,,Cheshire,Cheshire,England,Cheshire,GB,Chester,53.31955,-2.11376,1,,,,,,,P,,,,,,,SJ925802,SK10 4JX,,,,,,,609289,3049,,,,
14168,4169,Full-circle ring,Adlington,,,S Paul,,N,S Paul,,,Lancashire,Lancashire,England,Lancashire,GB,Blackburn,53.61651,-2.60109,8,,,1488,,F,710.0,C,,T,,,,Lancashire Association,SD603134,PR6 9QR,Thu,,,,II,1072623,603070,928,0036,ADLINGTON,53.61589,-2.59988
17835,9414,Full-circle ring,Adstock,,,S Cecilia,,N,S Cecilia,,,Buckinghamshire,Buckinghamshire,England,Buckinghamshire,GB,Oxford,51.96462,-0.93150,2,,,,,,,P,,,,,,,SP735301,MK18 2HY,,,,,I,1288520,627628,9858,,,,
17836,9415,Chime,Adstone,,,All Saints,,N,All Saints,,,Northamptonshire,Northamptonshire,England,Northamptonshire,GB,Peterborough,52.15741,-1.13053,1,,,,,,,P,,,,,,,SP595513,NN12 8DT,,,,,II,1371603,628126,10200,,,,
10510,511,Full-circle ring,Advent,,,S Adwena,,N,S Adwena,Tresinney,,Cornwall,Cornwall,England,Cornwall,GB,Truro,50.60336,-4.67982,6,,,416,,C♯,1077.0,P,GF,,,,https://tdgr.org.uk/tower/northern/advent/,Truro Diocesan Guild,SX104816,PL32 9QW,,2004,,,I,1328128,639248,13718,0037,ADVENT,,
17837,9416,Chime,Adwell,,,S Mary,,N,S Mary,,,Oxfordshire,Oxfordshire,England,Oxfordshire,GB,Oxford,51.69067,-0.99386,2,,,,,,,P,,,,,,,SU696995,OX9 7DH,,,,,II,1059703,627004,9267,,,,
14127,4128,Full-circle ring,Adwick le Street,,,S Laurence,,N,S Laurence,,,South Yorkshire,South Yorkshire,England,Yorkshire,GB,Sheffield,53.57115,-1.18479,6,,,1144,,G♯,818.5,P,,T,,,,Yorkshire Association,SE540085,DN6 7AP,Tue (by arrangement) 18:30,,,,II*,1151473,635141,12718,0038,ADWICK LE,,
17838,9417,Chime,Adwick on Dearne,,,S John,,N,S John,,,South Yorkshire,South Yorkshire,England,Yorkshire,GB,Sheffield,53.50805,-1.29244,2,,,455,,,,P,,,,,,,SE470014,S64 0NE,,,,,II*,1151670,635236,12802,,,,
17839,9418,Chime,Affpuddle,,,S Laurence,,N,S Laurence,,,Dorset,Dorset,England,Dorset,GB,Salisbury,50.74267,-2.27725,4,,,1519,,E,,P,,,,,,,SY805937,DT2 7HH,,,,,I,1323317,634201,12223,,,,
17840,9419,Full-circle ring,Aigburth,,,S Anne,,N,S Anne,,,Merseyside,Merseyside,England,Lancashire,GB,Liverpool,53.36928,-2.93049,1,,,336,app,A,,P,,,,,,,SJ381862,L17 6AB,,,,,II*,1068405,622025,7331,,,,
17841,9420,Chime,Aikton,,,S Andrew,,N,S Andrew,,,Cumbria,Cumbria,England,Cumberland,GB,Carlisle,54.86529,-3.11933,2,,,148,,,,P,,,,,,,NY282528,CA7 0HP,,,,,I,1327139,607072,1926,,,,
13729,3730,Full-circle ring,Ainderby Steeple,,,S Helen,,N,S Helen,,,North Yorkshire,North Yorkshire,England,Yorkshire,GB,Leeds,54.32334,-1.48731,6,,,1115,,G,806.5,P,,T,,,http://www.riponandleedsbells.org.uk/ainderby_steeple.htm,Yorkshire Association,SE334920,DL7 9PS,Fri,,,,I,1315088,646014,10722,0039,AINDERBY,,
17842,9421,Chime,Ainstable,,,S Michael,,N,S Michael,,,Cumbria,Cumbria,England,Cumberland,GB,Carlisle,54.81317,-2.73281,2,,,,,,,P,,,,,,,NY530467,CA4 9QN,,,,,II,1144834,607120,1966,,,,
17843,9422,Full-circle ring,Ainsworth,,,Christ Church,,N,Christ Church,,,Greater Manchester,Greater Manchester,England,Lancashire,GB,Manchester,53.58752,-2.35890,1,u/r,,364,app,E♭,,P,,,,Steel bell; unringable. ,,,SD763101,BL2 5QU,,,,,II,1067260,624304,8308,,,,
17291,7293,Chime,Aintree,,,S Giles,,N,S Giles,Liverpool,,Merseyside,Merseyside,England,Lancashire,GB,Liverpool,53.48101,-2.94115,8,,,732,,B♭,,P,,,,,,,SJ376986,L10 8LE,,,,,,,622059,7361,,LIVERPLAIN,,
17844,9423,Chime,Airedale,,,Holy Cross,,N,Holy Cross,,,West Yorkshire,West Yorkshire,England,Yorkshire,GB,Leeds,53.72358,-1.31642,1,,,542,,,,P,,,,,,,SE452254,WF10 3JN,,,,,,,646015,13981,,,,
17845,9425,Chime,Airmyn,,,S David,,N,S David,,,East Riding of Yorkshire,East Riding of Yorkshire,England,Yorkshire,GB,Sheffield,53.71782,-0.90166,2,,,95,,,,P,,,,,,,SE725251,DN14 8LW,,,,,II,1347054,635194,12765,,,,
17569,7571,Chime,Aisholt,,,All Saints,,N,All Saints,,,Somerset,Somerset,England,Somerset,GB,Bath and Wells,51.11428,-3.15326,3,,,756,app,B♭,920.0,P,,,,,,,ST193356,,,,,,II*,1178112,601399,483,6801,AISHOLT,,
17846,9426,Chime,Aislaby,,,S Margaret,,N,S Margaret,,,North Yorkshire,North Yorkshire,England,Yorkshire,GB,York,54.46550,-0.67926,1,,,,,,,P,,,,,,,NZ857085,YO21 1SP,,,,,II,1148961,643606,15270,,,,
17773,7775,Chime,Akenham,,,S Mary,,N,S Mary,,,Suffolk,Suffolk,England,Suffolk,GB,Churches Conservation Trust,52.09614,1.13432,1,,,1512,app,F♯,727.0,P,,,,,https://www.suffolkbells.org.uk/towers/akenham1.php,,TM147488,IP1 6TQ,,,,,II*,1352028,,18977,,AKENHAM,,
16143,6144,Full-circle ring,Alberbury,,,S Michael & All Angels,,N,S Michael & All Angels,,,Shropshire,Shropshire,England,Shropshire,GB,Hereford,52.72388,-2.95095,5,u/r,,868,app,,,P,,,,Unringable. ,,Hereford Diocesan Guild,SJ358144,SY5 9AH,,,,,II*,1055242,618424,6437,0041,ALBERBURY,,
17213,7215,Chime,Albourne,,,S Bartholomew,,N,S Bartholomew,,,West Sussex,West Sussex,England,Sussex,GB,Chichester,50.93133,-0.21285,1,,,,,,,P,,,,,,,TQ256161,,,,,,II,1354779,610221,3346,,ALBOURNE,,
13575,3576,Full-circle ring,Albrighton,,,S Mary Magd,,N,S Mary Magd,,,Shropshire,Shropshire,England,Shropshire,GB,Lichfield,52.63724,-2.28327,8,,,1246,,G,775.0,P,,,,,http://www.sacbr.org.uk/Towers/Albrighton/Albrighton.html,Shropshire Association,SJ809044,WV7 3EQ,Mon,14 Sep 2023,Blyth & Co,,II*,1053700,620536,7222,0042,ALBRIGHTON,,
11571,1572,Full-circle ring,Alburgh,,,All Saints,,N,All Saints,,,Norfolk,Norfolk,England,Norfolk,GB,Norwich,52.43635,1.33908,8,,,1104,,G,,P,,,,,https://ndar.org.uk/towers/alburgh/,Norwich Diocesan Association,TM270872,IP20 0BY,,1996,A E W Baines,,I,1373533,626404,9003,0043,ALBURGH,,
11127,1128,Full-circle ring,Albury,,,S Mary,,N,S Mary,,,Hertfordshire,Hertfordshire,England,Hertfordshire,GB,St Albans,51.90264,0.08516,6,,,1537,,F,691.0,P,GF,T,,,http://www.hcacr.org.uk/bstortford/albury/index.html,Hertford County Association,TL435247,SG11 2JQ,Mon,1965,John Taylor & Co,1965,II*,1308146,632062,11203,0044,ALBURY HTS,,
12325,2326,Full-circle ring,Albury,,,S Matthew,,N,S Matthew,,,"New South Wales, Australia",New South Wales,Australia,,AU,Wangaratta,-36.08005,146.91624,8,,,889,,A♭,833.5,P,GF,,,,http://www.anzab.org.au/towers.php?tower=ALB,Australian and New Zealand Association,,,Tue 17:30,,,,,,,,5933,ALBURY NSW,,
24121,16047,Chime,Albury,,,S Helen,,N,S Helen,Tiddington,,Oxfordshire,Oxfordshire,England,Oxfordshire,GB,Oxford,51.74061,-1.05196,2,,,,,,,P,,,,,,,SP655050,OX9 2LP,,2014,Whites of Appleton,,II,1047466,627099,9355,,,,
17080,7081,Full-circle ring,Albury,,,S Peter & S Paul,,N,S Peter & S Paul,,,Surrey,Surrey,England,Surrey,GB,Guildford,51.21818,-0.49771,6,,,1746,,F,679.0,P,,,,,http://guildfordguild.org.uk/towers/albury/,Guildford Diocesan Guild,TQ050476,GU5 9AL,Mon,,,,II,1029561,617020,5858,0045,ALBURY SRY,,
25151,17143,Chime,Albury,,,S Peter & S Paul Old Church,,N,S Peter & S Paul Old Church,,,Surrey,Surrey,England,Surrey,GB,Churches Conservation Trust,51.21996,-0.47890,1,,,224,app,G,1554.1,P,,,,,,,TQ063478,GU5 9BH,,,,,I,1294958,,18853,,,,
17847,9427,Chime,Alby,,,S Ethelbert,,N,S Ethelbert,,,Norfolk,Norfolk,England,Norfolk,GB,Norwich,52.85497,1.27015,1,,,,,,,P,,,,,,,TG202336,NR11 7HF,,,,,II*,1049885,626061,8679,,,,
12246,2247,Full-circle ring,Alcester,,,S Nicholas,,N,S Nicholas,,,Warwickshire,Warwickshire,England,Warwickshire,GB,Coventry,52.21534,-1.86914,8,,,1413,,F♯,733.0,C,,,,Ellacombe apparatus. ,http://warksbells.co.uk/alcester/,Coventry Diocesan Guild,SP090574,B49 5AJ,Thu (with exceptions),,,,II*,1200612,611128,3763,0046,ALCESTER,,
17848,9428,Chime,Alciston,,,dedication unknown,,N,dedication unknown,,,East Sussex,East Sussex,England,Sussex,GB,Chichester,50.82992,0.13688,2,,,,,D,1173.5,P,,,,,,,TQ505055,BN26 6UR,,,,,I,1353272,610427,3535,,,,
17849,9429,Chime,Alcombe,,,S Michael the Archangel,,N,S Michael the Archangel,,,Somerset,Somerset,England,Somerset,GB,Bath and Wells,51.19606,-3.46689,1,,,,,,,P,,,,,,,SS975451,TA24 6BL,,,,,,,601452,533,,,,
12292,2293,Full-circle ring,Alconbury,,,S Peter & S Paul,,N,S Peter & S Paul,,,Cambridgeshire,Cambridgeshire,England,Huntingdonshire,GB,Ely,52.37032,-0.26168,6,u/r,,1243,,G,,P,GF,,,Unringable; restoration work under way. ,https://huntbells.webador.co.uk/towers/unringable-bell-towers/alconbury,Ely Diocesan Association,TL184761,PE28 4DZ,,,John Taylor & Co,,I,1330459,614153,4646,0047,ALCONBURY,,
17850,9430,Chime,Aldborough,,,S Mary,,N,S Mary,,,Norfolk,Norfolk,England,Norfolk,GB,Norwich,52.85765,1.23532,1,,,,,,,P,,,,,,,TG179338,NR11 7NR,,,,,II*,1373470,626144,8753,,,,
14986,4987,Full-circle ring,Aldborough,,,S Andrew,,N,S Andrew,,,North Yorkshire,North Yorkshire,England,Yorkshire,GB,Leeds,54.09216,-1.38095,6,,,1260,,G,781.0,P,GF,,,,http://www.riponandleedsbells.org.uk/aldborough.htm,Yorkshire Association,SE405664,YO51 9ER,,1958,John Taylor & Co,,I,1173835,646016,10676,0048,ALDBOROUGH,,
17851,9431,Chime,Aldborough Hatch,,,S Peter,,N,S Peter,,,Greater London,Greater London,England,Essex,GB,Chelmsford,51.58356,0.10094,1,,,280,app,,,P,,,,,,,TQ456892,IG2 7TG,,,,,II,1081065,608143,2324,,,,
16642,6643,Full-circle ring,Aldbourne,,,S Michael,,N,S Michael,,,Wiltshire,Wiltshire,England,Wiltshire,GB,Salisbury,51.48066,-1.62162,8,,,2128,app,E♭,,P,,T,,,http://www.sdgr.org.uk/branches/marlborough/tower-2,Salisbury Diocesan Guild,SU263758,SN8 2EL,Fri,,,,I,1034152,634554,12546,0049,ALDBOURNE,,
17852,9432,Chime,Aldbrough,,,S Bartholomew,,N,S Bartholomew,,,East Riding of Yorkshire,East Riding of Yorkshire,England,Yorkshire,GB,York,53.82984,-0.11100,3,,,1521,,F♯,,P,,,,,,,TA244387,HU11 4RN,,,,,II*,1083529,643292,14989,,,,
17853,9433,Chime,Aldbrough,,,S Paul,,N,S Paul,,,North Yorkshire,North Yorkshire,England,Yorkshire,GB,Leeds,54.49603,-1.68839,1,,,256,,,,P,,,,,,,NZ202112,DL11 7TR,,,,,II,1131957,646017,10672,,,,
17145,7146,Full-circle ring,Aldbury,,,S John Bapt,,N,S John Bapt,,,Hertfordshire,Hertfordshire,England,Hertfordshire,GB,St Albans,51.80254,-0.60422,6,,,762,,B♭,932.2,P,GF,T,,,http://www.hcacr.org.uk/western/aldbury/index.html,Hertford County Association,SP963124,HP23 5RR,Tue 10:30 & Wed 20:00,1984,John Taylor & Co,1984,I,1078047,632055,11198,0050,ALDBURY,,
17039,7040,Full-circle ring,Aldeburgh,,,S Peter & S Paul,,N,S Peter & S Paul,,,Suffolk,Suffolk,England,Suffolk,GB,St Edmundsbury and Ipswich,52.15494,1.59969,8,,,1308,,A♭,822.0,P,,,,,http://www.suffolkbells.org.uk/towers/aldeburgh1.php,Suffolk Guild,TM463568,IP15 5DY,Mon (exc Bank Hols),1960,John Taylor & Co,1960,II*,1269731,633461,11994,0051,ALDEBURGH,,
15301,5302,Full-circle ring,Aldeby,,,S Mary,,N,S Mary,,,Norfolk,Norfolk,England,Norfolk,GB,Norwich,52.48265,1.60751,5,,,896,app,G,803.5,P,,,,Not well in tune. ,https://ndar.org.uk/towers/aldeby/ https://churchbellsofnorfolk.weebly.com/aldeby-st-mary.html,Norwich Diocesan Association,TM450933,NR34 0BJ,,,,,I,1050600,626334,8938,0052,ALDEBY,,
15828,5829,Full-circle ring,Aldenham,,,S John Bapt,,N,S John Bapt,,,Hertfordshire,Hertfordshire,England,Hertfordshire,GB,St Albans,51.67340,-0.35318,8,,,1680,app,E,677.5,P,,,,,http://www.hcacr.org.uk/watford/aldenham/index.html,Hertford County Association,TQ139984,WD25 8BA,Mon 20:00,1966,,,I,1103642,632003,11148,0053,ALDENHAM,,
17854,9434,Chime,Alderbury,,,S Mary V,,N,S Mary V,,,Wiltshire,Wiltshire,England,Wiltshire,GB,Salisbury,51.04140,-1.74122,1,,,,,,,P,,,,,,,SU182269,SP5 3DW,,,,,II,1355757,634328,12336,,,,
17855,9435,Chime,Aldercar,,,S John,,N,S John,,,Derbyshire,Derbyshire,England,Derbyshire,GB,Derby,53.02660,-1.33581,1,,,,,,,P,,,,,,,SK446479,NG16 4FD,,,,,,,612262,4123,,,,
17856,9436,Chime,Alderford,,,S John Bapt,,N,S John Bapt,,,Norfolk,Norfolk,England,Norfolk,GB,Norwich,52.72498,1.14352,1,,,,,,,P,,,,,,,TG123187,NR9 5NF,,,,,II*,1076888,626173,8782,,,,
17857,9437,Chime,Alderholt,,,S James,,N,S James,,,Dorset,Dorset,England,Dorset,GB,Salisbury,50.91283,-1.85236,2,,,,,,,P,,,,,,,SU104126,SP6 3DN,,,,,II,1153940,634300,12310,,,,
17858,9438,Full-circle ring,Alderley,,,S Kenelm,,N,S Kenelm,,,Gloucestershire,Gloucestershire,England,Gloucestershire,GB,Gloucester,51.61556,-2.33575,1,,,1008,app,B♭,913.5,C,GF,,,,,,ST768908,GL12 7QT,,2015,Whites of Appleton,,II,1152561,616155,5592,,,,
17859,9439,Tubular chime,Alderley Edge,,,S Philip,,N,S Philip,,,Cheshire,Cheshire,England,Cheshire,GB,Chester,53.30436,-2.23874,1,,,,,,,P,,,,,,,SJ841786,SK9 7UZ,,,,,II*,1138867,609252,3017,,,,
10431,432,Full-circle ring,Aldermaston,,,S Mary V,,N,S Mary V,,,Berkshire,Berkshire,England,Berkshire,GB,Oxford,51.38070,-1.14440,8,,,1190,,G,769.0,P,,,,,https://bellsnearnewbury.org.uk/branch-towers/,Oxford Diocesan Guild,SU596649,RG7 4HR,Thu,1900,,,I,1117319,627340,9588,0054,ALDERMASTO,,
12943,2944,Full-circle ring,Alderminster,,,S Mary & Holy Cross,,N,S Mary & Holy Cross,,,Warwickshire,Warwickshire,England,Warwickshire,GB,Coventry,52.13553,-1.66542,6,,,1370,,F,712.0,C,,,,,http://warksbells.co.uk/alderminster/,Coventry Diocesan Guild,SP229486,CV37 8PF,,,,,II*,1382532,611191,3822,0055,ALDERMINST,,
25141,17122,Chime,Aldersbrook,,,S Gabriel,,N,S Gabriel,,,Greater London,Greater London,England,Essex,GB,Chelmsford,51.56313,0.03247,1,,,,,,,P,,,,,,,TQ409868,E12 5HH,,,,,II,1081020,608144,2325,,,,
17860,9440,Chime,Aldershot,,,Holy Trinity,,N,Holy Trinity,,,Hampshire,Hampshire,England,Hampshire,GB,Guildford,51.24754,-0.75930,1,,,,,,,P,,,,,,,SU866505,GU11 1HH,,,,,II,1092621,617004,5842,,,,
10989,990,Full-circle ring,Aldershot,,,S Michael Archangel,,N,S Michael Archangel,,,Hampshire,Hampshire,England,Hampshire,GB,Guildford,51.24158,-0.75605,8,,,996,,A,871.0,P,GF,T,T,,,Guildford Diocesan Guild,SU869498,GU11 3HN,Thu,20 Dec 2016,John Taylor & Co,,II,1339670,617005,5843,0056,ALDERSHOT,,
17861,9441,Chime,Aldersley,,,Christ the King,,N,Christ the King,,,West Midlands,West Midlands,England,Staffordshire,GB,Lichfield,52.61168,-2.16023,1,,,739,,B,992.5,P,,,,,,,SJ892015,,,,,,,,620131,16089,,,,
15140,5141,Full-circle ring,Alderton,,,S Margaret,,N,S Margaret,,,Gloucestershire,Gloucestershire,England,Gloucestershire,GB,Gloucester,51.99708,-1.99856,6,,,1064,app,A,856.5,C,,T,,,http://www.bagleybells.co.uk/towers/glos.htm#ALDERTON_G,Gloucester and Bristol Diocesan Association,SP001331,GL20 8NR,"Thu (2nd, 4th: shared with Dumbleton)",1909,Henry Bond,,II*,1091731,616400,5820,0057,ALDERTON G,,
10269,270,Full-circle ring,Alderton,,,S Margaret,,N,S Margaret,,,Northamptonshire,Northamptonshire,England,Northamptonshire,GB,Peterborough,52.11553,-0.92019,5,,,863,,G♯,832.0,C,GF,,,,,Peterborough Diocesan Guild,SP740469,NN12 7LP,,2008,Whites of Appleton,,II*,1190752,628127,10201,0058,ALDERTON N,,
17862,9442,Chime,Alderton,,,S Andrew,,N,S Andrew,,,Suffolk,Suffolk,England,Suffolk,GB,St Edmundsbury and Ipswich,52.02398,1.41358,1,,,448,app,E♭,1275.0,P,,,,,https://suffolkbells.org.uk/towers/alderton1.php,Suffolk Guild,TM342416,IP12 3BS,,,,,II,1377186,633141,11684,,,,
12958,2959,Full-circle ring,Alderton,,,S Giles,,N,S Giles,,,Wiltshire,Wiltshire,England,Wiltshire,GB,Bristol,51.54621,-2.22944,6,,,1004,,F♯,751.5,P,,,,,https://www.bellsgandb.org.uk/cgi-bin/makepage.cgi?b=4#71,Gloucester and Bristol Diocesan Association,ST841830,SN14 6NL,,1998,Robert Parker,,II*,1022362,605189,1488,0059,ALDERTON W,,
17863,9443,Chime,Alderwasley,,,All Saints,,N,All Saints,,,Derbyshire,Derbyshire,England,Derbyshire,GB,Derby,53.07516,-1.51549,1,,,,,,,P,,,,Steel bell. ,,,SK325532,DE56 2SR,,,,,II,1335348,612184,4050,,,,
17864,9444,Chime,Aldfield St Lawrence,,,S Lawrence,,N,S Lawrence,,,North Yorkshire,North Yorkshire,England,Yorkshire,GB,Leeds,54.12042,-1.59481,1,,,,,,,P,,,,,,,SE265694,HG4 3BE,,,,,II*,1149796,646018,10689,,,,
13871,3872,Full-circle ring,Aldford,,,S John Bapt,,N,S John Bapt,,,Cheshire,Cheshire,England,Cheshire,GB,Chester,53.12899,-2.86997,6,,,1448,,E,673.0,C,,,,,,Chester Diocesan Guild,SJ418594,CH3 6JE,Tue,,,,II,1135984,609082,2867,0060,ALDFORD,,
17865,9445,Chime,Aldham,,,S Margaret & S Catherine,,N,S Margaret & S Catherine,,,Essex,Essex,England,Essex,GB,Chelmsford,51.89814,0.78577,2,,,,,,,P,,,,,,,TL917258,CO6 3RB,,,,,II*,1170063,608485,2630,,,,
17866,9446,Chime,Aldham,,,S Mary,,N,S Mary,,,Suffolk,Suffolk,England,Suffolk,GB,St Edmundsbury and Ipswich,52.06047,0.97563,1,,,504,app,,,P,,,,Round tower. ,https://suffolkbells.org.uk/towers/aldham1.html,Suffolk Guild,TM040444,IP7 6NP,,,,,I,1037438,633049,11598,,,,
12391,2392,Full-circle ring,Aldingbourne,,,S Mary V,,N,S Mary V,,,West Sussex,West Sussex,England,Sussex,GB,Chichester,50.84154,-0.68985,5,,,714,,B,960.0,P,GF,T,,,,Sussex County Association,SU923054,PO20 3TT,Mon (exc Bank Hols),,,,I,1027736,610003,3159,6028,ALDINGBOUR,,
17867,9447,Chime,Aldingham,,,S Cuthbert,,N,S Cuthbert,,,Cumbria,Cumbria,England,Lancashire,GB,Carlisle,54.13014,-3.09805,3,,,749,,,,P,,,,,,,SD283710,LA12 9RT,,,,,II*,1335944,607155,1999,,,,
17005,7006,Full-circle ring,Aldington,,,S Martin,,N,S Martin,,,Kent,Kent,England,Kent,GB,Canterbury,51.08746,0.96131,6,,,1551,,F,718.0,P,,,,,http://kent.lovesguide.com/tower.php?id=3 http://kcacr.org.uk/ashford-district/towers/towers-details/#Aldington,Kent County Association,TR074361,TN25 7EG,"Wed (2nd, 4th: check)",1928,Mears & Stainbank,1928,I,1071208,606247,1752,0061,ALDINGTON,,
15282,5283,Full-circle ring,Aldridge,,,S Mary V,,N,S Mary V,,,West Midlands,West Midlands,England,Staffordshire,GB,Lichfield,52.60435,-1.91281,8,,,1014,,A,870.0,C,,,,,,Lichfield and Walsall Archdeaconries Society,SK060007,WS9 8NH,Thu,,,,II*,1076396,620138,6895,0062,ALDRIDGE,,
17868,9448,Chime,Aldringham,,,S Andrew,,N,S Andrew,,,Suffolk,Suffolk,England,Suffolk,GB,St Edmundsbury and Ipswich,52.18618,1.58530,1,,,112,app,B,1980.0,P,,,,,https://suffolkbells.org.uk/towers/aldringham1.html,Suffolk Guild,TM451602,IP16 4QT,,,,,II,1287886,633462,11995,,,,
16493,6494,Full-circle ring,Aldrington,,,S Leonard,,N,S Leonard,Hove,,East Sussex,East Sussex,England,Sussex,GB,Chichester,50.83291,-0.20396,6,,,1106,,G,799.0,P,GF,,,,,Sussex County Association,TQ265052,BN3 4ED,Tue,,,,II,1298645,610081,3224,0063,ALDRINGTON,50.83256,-0.20280
17325,7327,Chime,Aldsworth,,,S Bartholomew,,N,S Bartholomew,,,Gloucestershire,Gloucestershire,England,Gloucestershire,GB,Gloucester,51.78823,-1.77849,3,,,1008,app,A♭,,P,,,,,,,SP153099,,,1959,John Taylor & Co,,I,1340781,616327,5752,,ALDSWORTH,51.78867,-1.77734
17869,9449,Chime,Aldwark,,,S Stephen,,N,S Stephen,,,North Yorkshire,North Yorkshire,England,Yorkshire,GB,York,54.06379,-1.28734,2,,,325,,,,P,,,,,,,SE467633,YO61 1UF,,,,,II,1314960,643063,14770,,,,
15116,5117,Full-circle ring,Aldwick,,,S Richard,,N,S Richard,,,West Sussex,West Sussex,England,Sussex,GB,Chichester,50.78389,-0.71120,8,,,894,,B♭,923.0,C,,,,,,Sussex County Association,SZ909990,PO21 3RD,Tue,2007,Nicholson Engineering Ltd,,None,None,610004,3160,0064,ALDWICK,,
17870,9450,Full-circle ring,Aldwincle,,,All Saints,,N,All Saints,,,Northamptonshire,Northamptonshire,England,Northamptonshire,GB,Peterborough;Churches Conservation Trust,52.42235,-0.51449,1,,,816,,B,,P,,,,,,,TL011815,NN14 3EA,,,,,I,1191528,628403,17213,,,,
16124,6125,Full-circle ring,Aldwincle,,,S Peter,,N,S Peter,,,Northamptonshire,Northamptonshire,England,Northamptonshire,GB,Peterborough,52.42547,-0.52191,5,,,1415,,G,788.0,P,GF,,,,,Peterborough Diocesan Guild,TL006818,NN14 3UU,,,,,I,1040308,628299,10362,0065,ALDWINCLE,,
11600,1601,Full-circle ring,Aldworth,,,S Mary V,,N,S Mary V,,,Berkshire,Berkshire,England,Berkshire,GB,Oxford,51.51064,-1.20320,3,,,1058,,A♭,825.5,C,GF,T,,,,,SU553793,RG8 9SB,,2011,Whites of Appleton,,I,1313119,627341,9589,6923,ALDWORTH,,
13507,3508,Full-circle ring,Alexandria,,,"Immanuel Chapel, Virginia Theological Seminary",,N,"Immanuel Chapel, Virginia Theological Seminary",,The Hooff Norman Bells,"Virginia, United States of America",Virginia,United States of America,,US,Virginia,38.81981,-77.09261,8,,,1218,,G,784.0,C,,T,T,,https://www.nagcr.org/towers-and-bands/alexandria,North American Guild,,,Mon 18:00,,,,,,,,7791,ALEXANDRIA,,
17871,9451,Chime,Alfington,,,S James,,N,S James,,,Devon,Devon,England,Devon,GB,Exeter,50.77498,-3.25890,1,,,,,,,P,,,,,,,SY113980,EX11 1PE,,,,,II,1212600,615189,5008,,,,
12570,2571,Full-circle ring,Alfold,,,S Nicholas,,N,S Nicholas,,,Surrey,Surrey,England,Surrey,GB,Guildford,51.09570,-0.52033,6,,,747,,B♭,914.0,P,GF,T,,,,Guildford Diocesan Guild,TQ037339,GU6 8EU,Thu,2003,Nicholson Engineering Ltd,2003,I,1352752,617022,5860,6924,ALFOLD,,
11928,1929,Full-circle ring,Alford,,,S Wilfrid,,N,S Wilfrid,,,Lincolnshire,Lincolnshire,England,Lincolnshire,GB,Lincoln,53.26164,0.18054,6,,,1396,,F♯,753.0,C,,,,,,Lincoln Diocesan Guild,TF455760,LN13 9EG,Thu 19:00,26 Aug 2015,John Taylor & Co,,I,1063026,621501,16696,0066,ALFORD,,
17872,9452,Chime,Alford,,,All Saints,,N,All Saints,,,Somerset,Somerset,England,Somerset,GB,Bath and Wells,51.09137,-2.56608,1,,,,,,,P,,,,,,,ST604326,BA7 7PN,,,,,I,1056264,601060,177,,,,
11489,1490,Full-circle ring,Alfreton,,,S Martin,,N,S Martin,,,Derbyshire,Derbyshire,England,Derbyshire,GB,Derby,53.09860,-1.39345,8,,,1203,,G,802.0,C,,T,,,,Derby Diocesan Association,SK407558,DE55 7AH,,27 Jan 2015,Whitechapel Bell Foundry,2015,II*,1335406,612003,3893,0067,ALFRETON,,
11489,9262,Clock chime,Alfreton,,,S Martin,,N,S Martin,,,Derbyshire,Derbyshire,England,Derbyshire,GB,Derby,53.09860,-1.39345,2,,,1554,,F♯,721.0,P,,T,,,,Derby Diocesan Association,SK407558,DE55 7AH,,,,,II*,1335406,612003,3893,,,,
17324,7326,Chime,Alfrick,,,S Mary Magd,,N,S Mary Magd,,,Worcestershire,Worcestershire,England,Worcestershire,GB,Worcester,52.17445,-2.36926,4,,,280,app,F,,P,,,,,,,SO748529,WR6 5HH,,1999,,,II*,1082221,642044,14472,0068,ALFRICK,,
15365,5366,Full-circle ring,Alfriston,,,S Andrew,,N,S Andrew,,,East Sussex,East Sussex,England,Sussex,GB,Chichester,50.80658,0.15802,6,,,940,,A,890.5,C,GF,,,Rung from chancel crossing. ,,Sussex County Association,TQ521030,BN26 5TL,Mon 11:00,1 Dec 2022,Whites of Appleton,,I,1043353,610428,3536,0069,ALFRISTON,,
15381,5382,Full-circle ring,Algarkirk,,,S Peter & S Paul,,N,S Peter & S Paul,,,Lincolnshire,Lincolnshire,England,Lincolnshire,GB,Lincoln,52.89948,-0.08169,6,u/r,,1344,app,F♯,,P,GF,,,Unringable; anticlockwise; rung from chancel crossing. ,,Lincoln Diocesan Guild,TF291352,PE20 2HH,,1935,Mears & Stainbank,,I,1164857,621192,16390,0070,ALGARKIRK,,
15237,5238,Full-circle ring,Alkborough,,,S John Bapt,,N,S John Bapt,,,Lincolnshire,Lincolnshire,England,Lincolnshire,GB,Lincoln,53.68607,-0.66615,3,u/r,,1344,app,A♭,803.0,P,GF,T,,"Unringable; tuning: (approx) 1,2♭,3 of 3. ",,,SE881218,DN15 9JF,,1910,John Taylor & Co,,I,1241758,621346,16544,6270,ALKBOROUGH,,
17692,7694,Chime,Alkerton,,,S Michael & All Angels,,N,S Michael & All Angels,,,Oxfordshire,Oxfordshire,England,Oxfordshire,GB,Oxford,52.08339,-1.45094,4,,,896,app,B♭,,P,,,,Ellacombe apparatus. ,,,SP377429,,,,,,I,1300845,627129,9384,0071,ALKERTON,,
16602,6603,Full-circle ring,Alkham,,,S Anthony,,N,S Anthony,,,Kent,Kent,England,Kent,GB,Canterbury,51.13609,1.22244,4,,,784,app,B♭,929.0,P,GF,,,,http://kent.lovesguide.com/tower.php?id=4 http://kcacr.org.uk/canterbury-district/towers/towers-details/#Alkham,Kent County Association,TR255423,CT15 7DE,,,,,I,1084358,606066,1583,0072,ALKHAM,,
17873,9453,Chime,Alkmonton,,,S John,,N,S John,,,Derbyshire,Derbyshire,England,Derbyshire,GB,Derby,52.94394,-1.72292,1,,,,,,,P,,,,,,,SK187385,DE6 3DL,,,,,II,1335021,612289,4148,,,,
15698,5699,Full-circle ring,All Cannings,,,All Saints,,N,All Saints,,,Wiltshire,Wiltshire,England,Wiltshire,GB,Salisbury,51.35313,-1.90131,6,,,1591,,E,662.5,C,,T,,,http://www.sdgr.org.uk/branches/devizes/tower-3,Salisbury Diocesan Guild,SU069615,SN10 3PF,,1996,Eayre & Smith,,II*,1365955,634525,12519,0073,ALL CANNIN,,
17874,9454,Chime,All Hallows,,,All Saints,,N,All Saints,,,Kent,Kent,England,Kent,GB,Rochester,51.46711,0.64184,1,,,224,,A,,P,,,,,,,TQ835775,ME3 9PF,,,,,I,1085758,631150,11020,,,,
17875,9455,Chime,All Stretton,,,S Michael & All Angels,,N,S Michael & All Angels,,,Shropshire,Shropshire,England,Shropshire,GB,Hereford,52.53661,-2.80179,1,,,202,,G♯,1641.0,P,,,,,,,SO457934,SY6 6PF,,,,,,,618335,6358,,,,
15435,5436,Full-circle ring,Allendale,,,S Cuthbert,,N,S Cuthbert,,,Northumberland,Northumberland,England,Northumberland,GB,Newcastle,54.89802,-2.25457,8,,,1129,,G,781.0,C,,T,,,http://allendalebells.wordpress.com/ http://dandn.esy.es/new/northern.html#allendale,Durham and Newcastle Diocesan Association,NY837559,NE47 9BD,Wed,,,,II,1042941,625062,8439,0074,ALLENDALE,,
17877,9457,Chime,Allens Green,,,S Anne,,N,S Anne,,,Hertfordshire,Hertfordshire,England,Hertfordshire,GB,St Albans,51.83097,0.11013,1,,,,,,,P,,,,,,,TL455168,,,,,,II,1220520,632079,17251,,,,
13626,3627,Full-circle ring,Allensmore,,,S Andrew,,N,S Andrew,,,Herefordshire,Herefordshire,England,Herefordshire,GB,Hereford,52.01873,-2.77932,6,,,1222,,G,766.0,P,GF,,,,http://www.bagleybells.co.uk/towers/herfs.htm#ALLENSMORE https://hdgb.org/?tower=allensmore,Hereford Diocesan Guild,SO466358,HR2 9AG,,2004,Arthur C Berry,2004,II*,1099725,618005,6059,0075,ALLENSMORE,,
17878,9458,Chime,Allenton,,,S John,,N,S John,,,Derbyshire,Derbyshire,England,Derbyshire,GB,Derby,52.88293,-1.45080,1,,,489,,,,P,,,,,,,SK370318,DE24 9JA,,,,,,,612309,4168,,,,
16759,6760,Full-circle ring,Aller,,,S Andrew,,N,S Andrew,,,Somerset,Somerset,England,Somerset,GB,Bath and Wells,51.05536,-2.86285,6,,,770,,G,795.0,P,GF,,,County books / DBR info discrepant. ,http://bath-wells.org/towerselect.php?DoveID=ALLER,Bath and Wells Diocesan Association,ST396288,TA10 0QR,PN: check with contact,1999,Robert Parker,,II*,1227327,601143,251,6102,ALLER,,
15758,5759,Full-circle ring,Allerston,,,S John,,N,S John,,,North Yorkshire,North Yorkshire,England,Yorkshire,GB,York,54.23443,-0.65425,3,,,496,,C,1039.5,C,GF,,,,,,SE878829,YO18 7PP,,,,,II*,1149549,643537,15206,6196,ALLERSTON,,
17879,9459,Chime,Allerthorpe,,,S Botolph,,N,S Botolph,,,East Riding of Yorkshire,East Riding of Yorkshire,England,Yorkshire,GB,York,53.91706,-0.80530,2,,,,,,,P,,,,,,,SE785474,YO42 4RP,,,,,II,1083874,643116,14822,,,,
17880,9460,Chime,Allerton,,,S Peter,,N,S Peter,,,West Yorkshire,West Yorkshire,England,Yorkshire,GB,Leeds,53.80379,-1.81861,1,,,,,,,P,,,,,,,SE120341,BD15 7QU,,,,,II,1133318,646021,1156,,,,
17881,9461,Chime,Allerton Bywater,,,S Mary,,N,S Mary,,,West Yorkshire,West Yorkshire,England,Yorkshire,GB,Leeds,53.74531,-1.36775,1,,,110,,,,P,,,,,,,SE417278,WF10 2AZ,,,,,,,646019,10849,,,,
16144,6145,Full-circle ring,Allerton Mauleverer,,,S Martin,,N,S Martin,,,North Yorkshire,North Yorkshire,England,Yorkshire,GB,Churches Conservation Trust,54.01594,-1.36679,3,u/r,,560,app,B,,P,,,,One bell (or more) cracked or broken; unringable; anticlockwise. ,,,SE415579,HG5 0SE,,,,,II*,1149996,,18864,7372,ALLERTON M,,
13782,3783,Full-circle ring,Allesley,,,All Saints,,N,All Saints,,,West Midlands,West Midlands,England,Warwickshire,GB,Coventry,52.42306,-1.55765,8,,,1344,,A♭,808.5,C,,T,,,http://warksbells.co.uk/allesley/,Coventry Diocesan Guild,SP301806,CV5 9ES,Tue,1946,John Taylor & Co,,I,1342900,611019,3665,0076,ALLESLEY,52.42336,-1.55855
16519,6520,Full-circle ring,Allestree,,,S Edmund K&M,,N,S Edmund K&M,,,Derbyshire,Derbyshire,England,Derbyshire,GB,Derby,52.95366,-1.48375,3,,,922,,A,875.5,C,,T,,"Anticlockwise; tuning: 1,2,4 of 5. ",,Derby Diocesan Association,SK347397,DE22 2DZ,,,,,II*,1228939,612231,4094,6060,ALLESTREE,52.95372,-1.48408
17882,9462,Chime,Allestree,,,S Nicholas,,N,S Nicholas,,,Derbyshire,Derbyshire,England,Derbyshire,GB,Derby,52.94605,-1.50113,1,,,,,,,P,,,,Steel bell. ,,,SK336388,DE22 2PE,,,,,,,612232,4095,,,,
11242,1243,Full-circle ring,Allexton,,,S Peter,,N,S Peter,,,Leicestershire,Leicestershire,England,Leicestershire,GB,Churches Conservation Trust,52.59533,-0.79453,4,,,939,,A,863.0,C,GF,,,Tuning: 1-4 of 5. ,,Leicester Diocesan Guild,SK817004,LE15 9AB,,2007,Nicholas Meadwell,,II*,1061661,619093,16050,0077,ALLEXTON,,
17883,9463,Chime,Allhallows,,,All Saints,,N,All Saints,,,Cumbria,Cumbria,England,Cumberland,GB,Carlisle,54.77110,-3.24923,2,,,,,,,P,,,,,,,NY197425,CA7 1BZ,,,,,II,1144493,607342,2165,,,,
17885,9465,Chime,Allington,,,S Swithun,,N,S Swithun,,,Dorset,Dorset,England,Dorset,GB,Salisbury,50.73495,-2.76462,2,,,896,app,B♭,,P,,,,,,,SY461930,DT6 5FJ,,,,,II*,1216300,634071,12094,,,,
17884,9464,Chime,Allington,,,S Nicholas,,N,S Nicholas,,,Kent,Kent,England,Kent,GB,Canterbury,51.28139,0.49982,1,,,,,,,P,,,,,,,TQ744565,ME16 0DE,,,,,,,606313,1814,,,,
16059,6060,Full-circle ring,Allington,,,S John Bapt,,N,S John Bapt,,,Wiltshire,Wiltshire,England,Wiltshire,GB,Friends of Friendless Churches,51.15330,-1.70949,3,u/r,,672,app,C♯,1118.0,C,GF,,,"Unringable; ropes fall in a straight line; rung from porch; tuning: 1,3,4 of 6. ",,,SU204393,SP4 0BX,,,,,II,1300482,634330,19290,6900,ALLINGTON,,
17886,9466,Chime,Allithwaite,,,S Mary,,N,S Mary,,,Cumbria,Cumbria,England,Lancashire,GB,Carlisle,54.18305,-2.94296,2,,,,,,,P,,,,,,,SD385767,LA11 7QN,,,,,II,1335764,607240,2074,,,,
11838,1839,Full-circle ring,Alloa,,,S John Ev,,N,S John Ev,,,"Clackmannanshire, Scotland",Clackmannanshire,Scotland,"Clackmannanshire, Scotland",GB,"St Andrews, Dunkeld and Dunblane",56.11264,-3.79367,8,,,1476,,F♯,741.0,P,,T,,,,Scottish Association,NS885925,FK10 1AN,,,,,B,LB20957,,,0078,ALLOA,,
17887,9467,Chime,Allonby,,,Christ Church,,N,Christ Church,,,Cumbria,Cumbria,England,Cumberland,GB,Carlisle,54.76727,-3.43087,1,,,,,,,P,,,,,,,NY080423,CA15 6PD,,,,,II,1234482,607343,2166,,,,
10843,844,Full-circle ring,Almeley,,,S Mary,,N,S Mary,,,Herefordshire,Herefordshire,England,Herefordshire,GB,Hereford,52.15777,-2.97702,6,,,1259,,G,776.0,P,GF,T,,,http://www.bagleybells.co.uk/towers/herfs.htm#ALMELEY https://hdgb.org/?tower=almeley https://stmaryalmeley.org.uk/church-groups/bellringers/,Hereford Diocesan Guild,SO332515,HR3 6LB,,1961,John Taylor & Co,,I,1081702,618130,6171,0079,ALMELEY,,
15599,5600,Full-circle ring,Almer,,,S Mary,,N,S Mary,,,Dorset,Dorset,England,Dorset,GB,Salisbury,50.78985,-2.12470,4,u/r,,1232,app,F♯,,P,,,,Unringable: wheels removed. ,http://www.sdgr.org.uk/branches/east-dorset/tower-4,Salisbury Diocesan Guild,SY913989,DT11 9EN,,,,,I,1154550,634202,12224,5768,ALMER,,
13733,3734,Full-circle ring,Almondbury,,,All Hallows,,N,All Hallows,,,West Yorkshire,West Yorkshire,England,Yorkshire,GB,Leeds,53.63174,-1.74709,8,,,2037,,E,668.5,P,,,,,,Yorkshire Association,SE168150,HD5 8US,Mon,,,,I,1225096,646022,13853,0080,ALMONDBURY,,
17888,9468,Chime,Almondbury,,,S Michael & All Angels,,N,S Michael & All Angels,,,West Yorkshire,West Yorkshire,England,Yorkshire,GB,Leeds,53.63966,-1.73538,1,,,,,,,P,,,,,,,SE175159,HD5 8UD,,,,,,,646023,13854,,,,
13610,3611,Full-circle ring,Almondsbury,,,S Mary V,,N,S Mary V,,,Gloucestershire,Gloucestershire,England,Gloucestershire,GB,Bristol,51.55419,-2.57335,8,,,2309,,D,582.5,C,,T,,,https://almondsburychurch.org.uk/bellringers/ https://southglosbells.wordpress.com/almondsbury-s-mary-v/ https://www.bellsgandb.org.uk/cgi-bin/makepage.cgi?b=2#25,Gloucester and Bristol Diocesan Association,ST603840,BS32 4DT,Mon,28 Mar 2019,John Taylor & Co,2019,I,1128858,605104,1408,0081,ALMONDSBUR,,
17889,9469,Chime,Alne,,,S Mary,,N,S Mary,,,North Yorkshire,North Yorkshire,England,Yorkshire,GB,York,54.08155,-1.24468,3,,,647,,C,1028.0,P,,,,,,,SE495653,YO61 1RX,,,,,I,1151297,643062,14769,,,,
17890,9470,Chime,Alnham,,,S Michael & All Angels,,N,S Michael & All Angels,,,Northumberland,Northumberland,England,Northumberland,GB,Newcastle,55.39289,-2.01598,1,,,,,,,P,,,,,,,NT990109,NE66 4TL,,,,,I,1303455,625170,8530,,,,
17208,7210,Clock chime,Alnmouth,,,S John Bapt,,N,S John Bapt,,,Northumberland,Northumberland,England,Northumberland,GB,Newcastle,55.38841,-1.61232,5,,,676,,C,517.0,P,,,,,https://northeastbells.co.uk/clock-chimes,,NU246105,,,,,,II,1371166,625171,8531,,ALNMOUTH,,
14007,4008,Full-circle ring,Alnwick,,"Alnwick, S Michael",S Michael,,N,S Michael,,,Northumberland,Northumberland,England,Northumberland,GB,Newcastle,55.41688,-1.71138,10,,,1129,,G,780.0,C,,T,,,http://www.alnwickanglican.com/history/belltower/ http://dandn.esy.es/new/northern.html#alnwickm,,NU183137,NE66 1NB,Wed,12 Aug 2021,Whites of Appleton,2021,I,1041546,625172,8532,7586,ALNWICK MI,,
11675,1676,Full-circle ring,Alnwick,,"Alnwick, S Paul",S Paul,,N,S Paul,,,Northumberland,Northumberland,England,Northumberland,GB,Hexham and Newcastle,55.41109,-1.70667,8,u/r,,2123,,E♭,,P,,T,,Former church of S Paul (Anglican) (until 1982); unringable. ,http://dandn.esy.es/new/northern.html#alnwickp,Durham and Newcastle Diocesan Association,NU186130,NE66 1UW,,,,,II*,1041438,625173,17083,0082,ALNWICKRC,,
17891,9471,Chime,Alphamstone,,,S Barnabas,,N,S Barnabas,,,Essex,Essex,England,Essex,GB,Chelmsford,51.98583,0.73463,3,,,1130,,G,763.0,C,,,,,,,TL878354,CO8 5HE,,,,,I,1122865,608392,2544,,,,
17892,9472,Chime,Alpheton,,,S Peter & S Paul,,N,S Peter & S Paul,,,Suffolk,Suffolk,England,Suffolk,GB,St Edmundsbury and Ipswich,52.12083,0.73511,2,,,504,app,D,1140.0,P,,,,,https://suffolkbells.org.uk/towers/alpheton1.html,Suffolk Guild,TL873504,CO10 9BL,,,,,I,1036728,633283,11824,,,,
14929,4930,Full-circle ring,Alphington,,,S Michael & All Angels,,N,S Michael & All Angels,,,Devon,Devon,England,Devon,GB,Exeter,50.69937,-3.53307,8,,,1496,,F,690.0,P,,,,,,Devon Association,SX918899,EX2 8XJ,,30 Mar 2018,John Taylor & Co,1939,II*,1103980,615068,4900,0083,EXETER ALP,,
15616,5617,Full-circle ring,Alrewas,,,All Saints,,N,All Saints,,,Staffordshire,Staffordshire,England,Staffordshire,GB,Lichfield,52.73476,-1.75334,8,,,1349,,F♯,754.0,C,,T,,,,Lichfield and Walsall Archdeaconries Society,SK167152,DE13 7BX,Tue,,,,I,1038926,620021,6792,0084,ALREWAS,52.73522,-1.75370
15684,5685,Full-circle ring,Alsager,,,Christ Church,,N,Christ Church,,,Cheshire,Cheshire,England,Cheshire,GB,Chester,53.09772,-2.31682,8,,,1196,,G♯,,P,,,,,,Chester Diocesan Guild,SJ788556,ST7 2HS,Mon,,,,II*,1138754,609219,2987,0085,ALSAGER,,
17893,9473,Chime,Alsager,,,S Mary,,N,S Mary,,,Cheshire,Cheshire,England,Cheshire,GB,Chester,53.09608,-2.30707,1,,,619,,,,P,,,,,,,SJ795554,ST7 2AN,,,,,II,1138757,609221,2989,,,,
17894,9474,Full-circle ring,Alsop le Dale,,,S Michael & All Angels,,N,S Michael & All Angels,,,Derbyshire,Derbyshire,England,Derbyshire,GB,Derby,53.09313,-1.76229,1,,,412,,,,P,,,,,,,SK160551,DE6 1QP,,,,,II,1109356,612185,4051,,,,
17702,7704,Chime,Alston,,,S Augustine,,N,S Augustine,,,Cumbria,Cumbria,England,Cumberland,GB,Newcastle,54.81289,-2.43977,10,,,1205,,A♭,820.0,P,,,,Diatonic 8 with 2♭ and 5#. ,,,NY718465,,,,,,II,1106230,625064,8440,,ALSTON,,
17895,9475,Chime,Alstone,,,S Margaret,,N,S Margaret,,,Gloucestershire,Gloucestershire,England,Gloucestershire,GB,Worcester,51.99058,-2.02672,1,,,,,,,P,,,,,,,SO982324,GL20 8JD,,,,,II*,1340159,642091,14517,,,,
14139,4140,Full-circle ring,Alstonefield,,,S Peter,,N,S Peter,,,Staffordshire,Staffordshire,England,Staffordshire,GB,Lichfield,53.09512,-1.80338,6,,,1214,,G,782.0,P,,,,,,North Staffordshire Association,SK132553,DE6 2FX,Wed,,,,I,1038158,620231,6970,0086,ALSTONEFIE,,
11467,1468,Full-circle ring,Altarnun,,,S Nonna,,N,S Nonna,,,Cornwall,Cornwall,England,Cornwall,GB,Truro,50.60464,-4.51315,8,,,1279,,F♯,726.0,C,,,,,https://tdgr.org.uk/tower/northern/altarnun/,Truro Diocesan Guild,SX222813,PL15 7SJ,,2010,Whites of Appleton,2010,I,1142805,639220,13691,0087,ALTARNUN,,
17896,9476,Chime,Altcar,,,S Michael & All Angels,,N,S Michael & All Angels,,,Lancashire,Lancashire,England,Lancashire,GB,Liverpool,53.55088,-3.02826,1,,,182,,,,P,,,,,,,SD319065,L37 5AA,,,,,II*,1230934,622122,7418,,,,
17896,9477,Tubular chime,Altcar,,,S Michael & All Angels,,N,S Michael & All Angels,,,Lancashire,Lancashire,England,Lancashire,GB,Liverpool,53.55088,-3.02826,1,,,,,,,P,,,,,,,SD319065,L37 5AA,,,,,II*,1230934,622122,7418,,,,
17548,7550,Chime,Altham,,,S James,,N,S James,,,Lancashire,Lancashire,England,Lancashire,GB,Blackburn,53.79352,-2.34805,8,,,2659,,D,,P,,,,,,,SD771330,,,,,,II*,1072721,603011,886,,ALTHAM,,
17897,9478,Chime,Althorne,,,S Andrew,,N,S Andrew,,,Essex,Essex,England,Essex,GB,Chelmsford,51.65669,0.75850,2,,,672,app,,,P,,,,One bell (or more) cracked or broken: 2. ,,,TQ909989,CM3 6BZ,,,,,II*,1110862,608287,2449,,,,
17898,9479,Chime,Althorpe,,,S Oswald,,N,S Oswald,,,Lincolnshire,Lincolnshire,England,Lincolnshire,GB,Lincoln,53.57659,-0.74073,3,,,,,F♯,,P,,,,,,,SE834096,DN17 3HX,,,,,I,1083258,621275,16473,,,,
17899,9480,Chime,Altofts,,,S Mary Magd,,N,S Mary Magd,,,West Yorkshire,West Yorkshire,England,Yorkshire,GB,Leeds,53.70948,-1.42888,1,,,255,,,,P,,,,,,,SE377238,WF6 2PA,,,,,,,646024,13944,,,,
11730,1731,Full-circle ring,Alton,,"Alton, All Ss",All Saints,,N,All Saints,,,Hampshire,Hampshire,England,Hampshire,GB,Winchester,51.14539,-0.98042,6,,,676,,B,996.0,C,,,,,https://www.wpbells.org/towers/alton-all-saints/,Winchester and Portsmouth Diocesan Guild,SU714389,GU34 1HU,Tue,,,,II,1391647,641026,14056,6005,ALTON H AS,51.14508,-0.98028
11925,1926,Full-circle ring,Alton,,"Alton, S Lawrence",S Lawrence,,N,S Lawrence,,,Hampshire,Hampshire,England,Hampshire,GB,Winchester,51.15109,-0.97589,8,,,2064,,E,664.0,P,,,,,https://www.wpbells.org/towers/alton-st-lawrence/,Winchester and Portsmouth Diocesan Guild,SU717395,GU34 2BY,Thu,,,,I,1338903,641027,14057,0088,ALTON H L,,
14384,4385,Full-circle ring,Alton,,,S Peter,,N,S Peter,,,Staffordshire,Staffordshire,England,Staffordshire,GB,Lichfield,52.97830,-1.89194,10,,,2522,,E♭,621.0,C,,T,,,,North Staffordshire Association,SK073423,ST10 4AQ,Mon,6 May 2023,John Taylor & Co,,II*,1191066,620247,6984,0089,ALTON STAF,,
17900,9481,Chime,Alton Barnes,,,S Mary V,,N,S Mary V,,,Wiltshire,Wiltshire,England,Wiltshire,GB,Salisbury,51.35722,-1.84673,2,,,392,app,,,P,,,,,,,SU107620,SN8 4LE,,,,,I,1364707,634573,12565,,,,
17901,9482,Chime,Alton Pancras,,,S Pancras,,N,S Pancras,,,Dorset,Dorset,England,Dorset,GB,Salisbury,50.82038,-2.42895,4,,,1374,,A♭,,P,,,,,,,ST698024,DT2 7RW,,,,,II*,1118915,634031,12058,,,,
15734,5735,Full-circle ring,Alton Priors,,,All Saints,,N,All Saints,,,Wiltshire,Wiltshire,England,Wiltshire,GB,Churches Conservation Trust,51.35804,-1.84475,3,u/r,,658,,D♭,1105.0,P,GF,,,"Unringable; ropes fall in a straight line; no mains electricity; tuning: 2,3,5 of 8. ",,,SU109621,SN8 4JZ,,,,,II*,1364710,,18949,7461,ALTONPRIOR,,
17902,9483,Chime,Altrincham,,,S George,,N,S George,,,Greater Manchester,Greater Manchester,England,Cheshire,GB,Chester,53.39008,-2.35115,1,,,,,,,P,,,,,,,SJ767881,WA14 4DB,,,,,II,1067949,609193,2965,,,,
17903,9484,Chime,Altrincham,,,S John,,N,S John,,,Greater Manchester,Greater Manchester,England,Cheshire,GB,Chester,53.38270,-2.35301,1,,,,,,,P,,,,,,,SJ766873,,,,,,II,1067961,609194,2966,,,,
17904,9485,Chime,Alvanley,,,S John,,N,S John,,,Cheshire,Cheshire,England,Cheshire,GB,Chester,53.26132,-2.75474,2,,,,,,,P,,,,,,,SJ497740,WA6 9BZ,,,,,II,1330157,609043,2831,,,,
10163,164,Full-circle ring,Alvaston,,,S Michael & All Angels,,N,S Michael & All Angels,,,Derbyshire,Derbyshire,England,Derbyshire,GB,Derby,52.89618,-1.41834,6,,,1935,,F,,P,,,,,,Derby Diocesan Association,SK392333,DE24 0QF,Mon (exc Bank Hols),,,,II,1216019,612310,4169,0090,DERBY ALVA,,
15221,5222,Full-circle ring,Alvechurch,,,S Lawrence,,N,S Lawrence,,,Worcestershire,Worcestershire,England,Worcestershire,GB,Worcester,52.35000,-1.96260,8,,,1345,,G,785.1,C,,T,,,http://www.wdcra.org.uk/alvech.htm,Worcestershire and Districts Association,SP026724,B48 7SB,Tue,2012,Whites of Appleton,,II*,1100225,642145,14564,0091,ALVECHURCH,,
10835,836,Full-circle ring,Alvediston,,,S Mary,,N,S Mary,,,Wiltshire,Wiltshire,England,Wiltshire,GB,Salisbury,51.01489,-2.03465,3,u/r,,896,app,G♯,821.0,P,GF,,,"Unringable; tuning: (approx) 1,2,4 of 5. ",,,ST976239,SP5 5LE,,,,,II*,1318670,634371,12377,7413,ALVEDISTON,,
14894,4895,Full-circle ring,Alveley,,,S Mary V,,N,S Mary V,,,Shropshire,Shropshire,England,Shropshire,GB,Hereford,52.45831,-2.35547,6,,,1151,,G,783.0,P,,T,,,https://hdgb.org/?tower=alveley,Hereford Diocesan Guild,SO759845,WV15 6ND,Thu,1959,,,II*,1053191,618264,6291,0092,ALVELEY,52.45772,-2.35504
15425,5426,Full-circle ring,Alverdiscott,,,All Saints,,N,All Saints,,,Devon,Devon,England,Devon,GB,Exeter,51.00754,-4.11171,3,u/r,,896,app,B♭,,P,GF,,,"Unringable; tuning: 1,3,4 of 4. ",,,SS519252,EX31 3QJ,,,,,II*,1170720,615518,5320,6925,ALVERDISCO,,
10747,748,Full-circle ring,Alverstoke,,,S Mary,,N,S Mary,,,Hampshire,Hampshire,England,Hampshire,GB,Portsmouth,50.78565,-1.14825,8,,,1503,,F♯,733.5,C,,,,,https://www.wpbells.org/towers/alverstoke/,Winchester and Portsmouth Diocesan Guild,SZ601987,PO12 2EH,Fri,,,,II,1232651,629003,10456,0093,ALVERSTOKE,,
17406,7408,Chime,Alverthorpe,,,S Paul,,N,S Paul,,,West Yorkshire,West Yorkshire,England,Yorkshire,GB,Leeds,53.69214,-1.53172,13,,,1263,,G,,P,,,,"Diatonic 10 with 3♯, 4♭ and 7♯. ",,,SE310218,,,,,,II,1273436,646025,14010,,ALVERTHORP,,
12335,2336,Full-circle ring,Alvescot,,,S Peter,,N,S Peter,,,Oxfordshire,Oxfordshire,England,Oxfordshire,GB,Oxford,51.73945,-1.60491,6,,,1028,,A,874.5,P,GF,,,,,Oxford Diocesan Guild,SP273046,OX18 2PT,,,,,II*,1198102,627232,9483,0095,ALVESCOT,,
11351,1352,Full-circle ring,Alveston,,,S Helen,,N,S Helen,,,Gloucestershire,Gloucestershire,England,Gloucestershire,GB,Bristol,51.58501,-2.53049,6,,,1680,app,F♯,722.0,P,,T,,,http://southglosbells.wordpress.com/alveston-s-helen/ https://www.bellsgandb.org.uk/cgi-bin/makepage.cgi?b=2#26,Gloucester and Bristol Diocesan Association,ST633874,BS35 3QG,Tue,,,,II,1128881,605105,1409,0096,ALVESTON G,,
11312,1313,Full-circle ring,Alveston,,,S James,,N,S James,,,Warwickshire,Warwickshire,England,Warwickshire,GB,Coventry,52.20478,-1.66228,6,,,840,app,A,882.0,P,,T,,,http://warksbells.co.uk/alveston/,Coventry Diocesan Guild,SP231563,CV37 7QJ,Wed,,,,II,1204420,611161,3794,0097,ALVESTON W,,
13105,3106,Full-circle ring,Alvingham,,,S Adelwold,,N,S Adelwold,,,Lincolnshire,Lincolnshire,England,Lincolnshire,GB,Lincoln,53.40088,0.05596,3,,,1008,app,A,871.5,P,GF,,,Ringing currently not permitted; anticlockwise; Shares a churchyard with North Cockerington (the only example of two rings of bells in one churchyard). ,,,TF367913,LN11 0QD,,,,,I,1063076,621649,16844,6237,ALVINGHAM,,
10210,211,Full-circle ring,Alvington,,,S Andrew,,N,S Andrew,,,Gloucestershire,Gloucestershire,England,Gloucestershire,GB,Gloucester,51.70344,-2.57578,5,,,998,,A,886.0,C,GF,,,,http://www.bagleybells.co.uk/towers/glos.htm#ALVINGTON https://www.bellsgandb.org.uk/cgi-bin/makepage.cgi?b=6#142,Gloucester and Bristol Diocesan Association,SO603006,GL15 6BQ,Wed 15:00,1996,Nick Hopkins,,II,1186572,616080,5528,0098,ALVINGTON,,
12351,2352,Full-circle ring,Alwalton,,,S Andrew,,N,S Andrew,,,Cambridgeshire,Cambridgeshire,England,Huntingdonshire,GB,Ely,52.54950,-0.32991,5,,,904,,G♯,834.0,P,,T,,,https://huntbells.webador.co.uk/towers/5-bell-towers/alwalton,Ely Diocesan Association,TL133959,PE7 3UU,Mon (monthly: check),1993,,,I,1330532,614226,4717,0099,ALWALTON,,
10460,461,Full-circle ring,Alwington,,,S Andrew,,N,S Andrew,,,Devon,Devon,England,Devon,GB,Exeter,50.98566,-4.27440,6,,,1288,,F♯,755.5,P,GF,,,,,Devon Association,SS404231,EX39 5DA,PN: by arrangement,1946,Gillett & Johnston,,I,1170749,615444,5250,0100,ALWINGTON,,
17905,9486,Chime,Alwinton,,,S Michael & All Angels,,N,S Michael & All Angels,,,Northumberland,Northumberland,England,Northumberland,GB,Newcastle,55.34596,-2.12137,1,,,,,,,P,,,,,,,NT924057,NE65 7BE,,,,,II*,1041296,625175,8534,,,,
17906,9487,Chime,Alwoodley,,,S Barnabas,,N,S Barnabas,,,West Yorkshire,West Yorkshire,England,Yorkshire,GB,Leeds,53.86079,-1.56145,1,,,316,,,,P,,,,,,,SE289405,LS17 7NA,,,,,,,646026,10771,,,,
17907,9488,Chime,Ambergate,,,S Anne,,N,S Anne,,,Derbyshire,Derbyshire,England,Derbyshire,GB,Derby,53.05903,-1.48233,1,,,63,,,,P,,,,,,,SK347514,DE56 2EJ,,,,,,,612233,4096,,,,
17908,9489,Chime,Amberley,,,Holy Trinity,,N,Holy Trinity,,,Gloucestershire,Gloucestershire,England,Gloucestershire,GB,Gloucester,51.70879,-2.21776,1,,,,,,,P,,,,,,,SO850011,GL5 5JG,,,,,II,1091148,616178,5614,,,,
17909,9490,Chime,Amberley,,,no dedication,,N,no dedication,,,Herefordshire,Herefordshire,England,Herefordshire,GB,Hereford,52.12738,-2.66377,2,,,,,,,P,,,,,,,SO546478,HR1 3HH,,,,,II*,1099404,618114,6156,,,,
10432,433,Full-circle ring,Amberley,,,S Michael,,N,S Michael,,,West Sussex,West Sussex,England,Sussex,GB,Chichester,50.90914,-0.53961,5,,,657,,B,968.0,P,,,,Anticlockwise. ,,Sussex County Association,TQ027132,BN18 9NF,Mon (confirm first),1950,Gillett & Johnston,1950,I,1353924,610288,3410,0101,AMBERLEY,,
17910,9491,Chime,Amble,,,S Cuthbert,,N,S Cuthbert,,,Northumberland,Northumberland,England,Northumberland,GB,Newcastle,55.33343,-1.58373,1,,,112,,,,P,,,,,,,NU265044,NE65 0EY,,,,,II,1371135,625177,8536,,,,
14839,4840,Full-circle ring,Amblecote,,,Holy Trinity,,N,Holy Trinity,Stourbridge,,West Midlands,West Midlands,England,Staffordshire,GB,Worcester,52.46293,-2.14912,8,,,787,,B,978.0,P,,T,,,http://www.wdcra.org.uk/amblec.htm,Worcestershire and Districts Association,SO899850,DY8 4DJ,Fri (PN alternates with Wolverley),,,,None,None,642242,14649,0102,STOURBRGAM,,
12386,2387,Full-circle ring,Ambleside,,,S Mary,,N,S Mary,,,Cumbria,Cumbria,England,Westmorland,GB,Carlisle,54.43060,-2.96638,8,,,3642,,D♭,552.0,C,,,,,http://amblesideonline.co.uk/useful-information/clubs/ambleside-bellringers/,Lancashire Association,NY374043,LA22 9DH,Mon,1998,Local labour/guild/assn,,II*,1244784,607241,2075,0103,AMBLESIDE,54.43053,-2.96538
10327,328,Full-circle ring,Ambrosden,,,S Mary V,,N,S Mary V,,,Oxfordshire,Oxfordshire,England,Oxfordshire,GB,Oxford,51.86997,-1.12580,8,,,2274,,E,645.5,C,GF,T,,Ellacombe apparatus. ,https://bicester.odg.org.uk/wordpress/index.php/towers/ambrosden/,Oxford Diocesan Guild,SP602194,OX25 2UJ,,1928,John Taylor & Co,,II*,1046525,627029,9287,0104,AMBROSDEN,51.86993,-1.12506
11899,1900,Full-circle ring,Amcotts,,,S Mark,,N,S Mark,,,Lincolnshire,Lincolnshire,England,Lincolnshire,GB,Lincoln,53.61670,-0.70880,3,u/r,,542,,E♭,1251.5,C,,T,,Unringable. ,,,SE855141,DN17 4AL,,,,,II,1083283,621276,16474,6254,AMCOTTS,,
14913,4914,Full-circle ring,Amersham,,,S Mary V,,N,S Mary V,,,Buckinghamshire,Buckinghamshire,England,Buckinghamshire,GB,Oxford,51.66696,-0.61642,12,,2#,2134,,E,659.0,C,,T,T,,http://amershamringing.org.uk/ http://www.inspirewebdesign.com/ringsof12/tower_details.asp?towerid=15,Oxford Diocesan Guild,SU957973,HP7 0DE,Wed,,,,I,1124855,627562,9794,0105,AMERSHAM,,
17911,9492,Chime,Amersham on the Hill,,,S Michael & All Angels,,N,S Michael & All Angels,,,Buckinghamshire,Buckinghamshire,England,Buckinghamshire,GB,Oxford,51.67794,-0.60501,1,,,434,,,,P,,,,,,,SU965986,HP6 5EW,,,,,,,627564,9796,,,,
13162,3163,Full-circle ring,Amesbury,,,S Mary & S Melor,,N,S Mary & S Melor,,,Wiltshire,Wiltshire,England,Wiltshire,GB,Salisbury,51.17191,-1.78428,8,,,2053,,E♭,606.5,P,,,,,http://www.sdgr.org.uk/branches/salisbury/tower-5,Salisbury Diocesan Guild,SU151414,SP4 7EU,Mon,1999,Nicholson Engineering Ltd,1999,I,1182066,634356,12362,0106,AMESBURY,,
17912,9494,Chime,Amington,,,S Editha,,N,S Editha,,,Staffordshire,Staffordshire,England,Warwickshire,GB,Birmingham,52.63791,-1.65369,2,,,71,,C♯,2186.0,P,,,,,,,SK235045,B77 4AD,,1973,John Taylor & Co,,II,1197036,602134,797,,,,
17913,9495,Chime,Amotherby,,,S Helen,,N,S Helen,,,North Yorkshire,North Yorkshire,England,Yorkshire,GB,York,54.15120,-0.85214,2,,,,,E,1363.5,P,,,,,,,SE750734,YO17 6TN,,,,,II,1149153,643100,14807,,,,
17914,9496,Chime,Ampfield,,,S Mark,,N,S Mark,,,Hampshire,Hampshire,England,Hampshire,GB,Winchester,51.00961,-1.42196,2,,,,,,,P,,,,,,,SU406235,SO51 9BU,,2017,Whites of Appleton,,II,1339161,641279,14296,,,,
16919,6920,Full-circle ring,Ampleforth,,,S Hilda,,N,S Hilda,,,North Yorkshire,North Yorkshire,England,Yorkshire,GB,York,54.20018,-1.10802,3,u/r,,504,app,C♯,1125.0,C,GF,,,Unringable; tuning: 1-3 of 5. ,,,SE582786,YO62 4DT,,,,,II,1149609,643461,15137,6926,AMPLEFORTH,,
11001,1002,Full-circle ring,Ampney Crucis,,,Holy Rood,,N,Holy Rood,,,Gloucestershire,Gloucestershire,England,Gloucestershire,GB,Gloucester,51.71573,-1.90745,6,,,780,,A♭,844.0,P,GF,,,,http://www.bagleybells.co.uk/towers/glos.htm#AMPNEY_CRU https://www.bellsgandb.org.uk/cgi-bin/makepage.cgi?b=5#104,Gloucester and Bristol Diocesan Association,SP064018,GL7 5RY,Mon,1988,Whites of Appleton,,I,1172051,616274,5701,0107,AMPNEY CRU,,
17915,9497,Chime,Ampney St Mary,,,S Mary,,N,S Mary,,,Gloucestershire,Gloucestershire,England,Gloucestershire,GB,Gloucester,51.71253,-1.89194,1,,,,,,,P,,,,,,,SP075015,GL7 5RU,,,,,I,1089958,616272,5699,,,,
17723,7725,Full-circle ring,Ampney St Peter,,,S Peter,,N,S Peter,,,Gloucestershire,Gloucestershire,England,Gloucestershire,GB,Gloucester,51.71271,-1.88339,2,u/r,,616,app,C,,P,,,,Unringable. ,,,SP081015,,,,,,II*,1089929,616273,5700,,AMPNEY SP,,
15890,5891,Full-circle ring,Amport,,,S Mary,,N,S Mary,Amport St Mary,,Hampshire,Hampshire,England,Hampshire,GB,Winchester,51.19624,-1.57284,6,,,1004,,F♯,756.0,P,GF,,,Rung from chancel crossing. ,https://www.wpbells.org/towers/amport/,Winchester and Portsmouth Diocesan Guild,SU299442,SP11 8BW,Fri,,,,II*,1093280,641050,14080,0108,AMPORT,,
11869,1870,Full-circle ring,Ampthill,,,S Andrew,,N,S Andrew,,,Bedfordshire,Bedfordshire,England,Bedfordshire,GB,St Albans,52.03312,-0.48992,8,,,1546,,A♭,824.5,C,,,,,,Bedfordshire Association,TL036382,MK45 2EP,Thu (not always: check),,,,I,1114420,632254,11385,0109,AMPTHILL,,
16426,6427,Full-circle ring,Ampton,,,S Peter,,N,S Peter,,,Suffolk,Suffolk,England,Suffolk,GB,St Edmundsbury and Ipswich,52.30702,0.73573,4,,,924,app,A,872.0,C,GF,,,Anticlockwise. ,https://www.suffolkbells.org.uk/towers/ampton1.php,Suffolk Guild,TL866711,IP31 1NX,,1888,George Bullock,,I,1198006,633305,11844,0110,AMPTON,,
13350,3351,Full-circle ring,Ancaster,,,S Martin,,N,S Martin,,,Lincolnshire,Lincolnshire,England,Lincolnshire,GB,Lincoln,52.98045,-0.53790,5,,,1408,,F,,P,,,,,,Lincoln Diocesan Guild,SK982435,NG32 3PW,Thu (not always: check),,,,I,1062422,621248,16446,0111,ANCASTER,,
17916,9498,Full-circle ring,Ancroft,,,S Ann,,N,S Ann,,,Northumberland,Northumberland,England,Northumberland,GB,Newcastle,55.70005,-1.99797,1,,,840,app,A♯,918.0,P,,,,,,,NU002451,TD15 2TE,,,,,II*,1042234,625243,8596,,,,
17917,9500,Full-circle ring,Anderby,,,S Andrew,,N,S Andrew,,,Lincolnshire,Lincolnshire,England,Lincolnshire,GB,Lincoln,53.25420,0.28222,1,,,672,app,,,P,,,,,,,TF523754,PE24 5YF,,,,,II,1147116,621503,16698,,,,
15738,5739,Full-circle ring,Andover,,,S Mary V,,N,S Mary V,,,Hampshire,Hampshire,England,Hampshire,GB,Winchester,51.21004,-1.47878,8,,,1701,,E,679.0,P,,T,,,https://www.wpbells.org/towers/andover/,Winchester and Portsmouth Diocesan Guild,SU365457,SP10 1NE,Tue,,,,II*,1264572,641051,14081,0112,ANDOVER,,
17918,9502,Chime,Andreas,,,S Andrew,,N,S Andrew,,,Isle of Man,,Isle of Man,,IM,Sodor and Man,54.36406,-4.44096,1,,,304,,F♯,1475.0,P,,,,,,,SC415992,,,,,,,,636037,17404,,,,
17919,9503,Chime,Andreas,,,S Jude,,N,S Jude,,,Isle of Man,,Isle of Man,,IM,Sodor and Man,54.34001,-4.46363,1,,,,,,,P,,,,,,,SC399966,,,,,,,,636038,17405,,,,
17920,9504,Chime,Anfield,,,S Columba,,N,S Columba,,,Merseyside,Merseyside,England,Lancashire,GB,Liverpool,53.43381,-2.95035,1,,,801,,B,976.0,P,,,,,,,SJ369934,L4 2TX,,,,,II,1208872,622061,7362,,,,
17921,9505,Chime,Anfield,,,S Margaret,,N,S Margaret,,,Merseyside,Merseyside,England,Lancashire,GB,Liverpool,53.42170,-2.94727,1,,,,,,,P,,,,,,,SJ371920,L6 4AD,,,,,,,622081,7379,,,,
17922,9507,Full-circle ring,Angell Town,,,S John Ev,,N,S John Ev,,,Greater London,Greater London,England,Surrey,GB,Southwark,51.46752,-0.10926,1,,,,,,,P,,,,,,,TQ314759,SW9 7PF,,,,,II,1080569,637023,12833,,,,
11406,1407,Full-circle ring,Angersleigh,,,S Michael,,N,S Michael,,,Somerset,Somerset,England,Somerset,GB,Bath and Wells,50.96209,-3.14203,6,,,1349,,A♭,821.0,P,,T,,,http://bath-wells.org/towerselect.php?DoveID=ANGERSLEIG,Bath and Wells Diocesan Association,ST198186,TA3 7SY,,1996,Robert Parker,,II*,1177574,601557,634,0113,ANGERSLEIG,,
10695,696,Full-circle ring,Angmering,,,S Margaret,,N,S Margaret,,,West Sussex,West Sussex,England,Sussex,GB,Chichester,50.82890,-0.48626,6,,,1540,app,F,710.0,C,,,,,,Sussex County Association,TQ067043,BN16 4JS,"Thu (2nd, 4th, 5th)",1937,Whitechapel Bell Foundry,,II*,1027708,610006,3161,0114,ANGMERING,,
17923,9508,Tubular chime,Anlaby,,,S Peter,,N,S Peter,,,East Riding of Yorkshire,East Riding of Yorkshire,England,Yorkshire,GB,York,53.74607,-0.43440,8,,,,,,,P,,,,,,,TA033288,HU10 7DG,,,,,,,643364,15051,,,,
17924,9509,Chime,Anlaby Common,,,S Mark,,N,S Mark,,,East Riding of Yorkshire,East Riding of Yorkshire,England,Yorkshire,GB,York,53.74525,-0.41564,1,,,80,,,,P,,,,,,,TA045288,HU4 7SA,,,,,,,643365,15052,,,,
17738,7740,Chime,Anmer,,,S Mary V,,N,S Mary V,,,Norfolk,Norfolk,England,Norfolk,GB,Norwich,52.83504,0.57829,4,,,510,,B,1029.5,P,,,,Ellacombe apparatus. ,https://churchbellsofnorfolk.weebly.com/anmer-st-mary.html,,TF737295,,,,,,II*,1077863,626570,9164,,ANMER,,
17925,17240,Tubular chime,Annesley,,,All Saints,,N,All Saints,,,Nottinghamshire,Nottinghamshire,England,Nottinghamshire,GB,Southwell and Nottingham,53.07737,-1.23869,8,,,,,,,P,,,,,,,SK510536,NG15 0AY,,,,,II*,1275939,638241,13398,,,,
17926,9510,Chime,Annfield Plain,,,S Aidan,,N,S Aidan,,,Durham,Durham,England,Durham,GB,Durham,54.85563,-1.73262,1,,,,,,,P,,,,,,,NZ172512,DH9 7UQ,,,,,,,613133,4329,,,,
17927,9511,Chime,Annscroft,,,Christ Church,,N,Christ Church,,,Shropshire,Shropshire,England,Shropshire,GB,Hereford,52.66652,-2.80735,1,,,,,,,P,,,,,,,SJ454079,SY5 8AY,,,,,,,618433,6446,,,,
16465,6466,Full-circle ring,Ansdell,,,S Joseph,,N,S Joseph,Lytham St Annes,,Lancashire,Lancashire,England,Lancashire,GB,Lancaster,53.74506,-2.98948,8,,,1096,,F♯,740.0,C,,,,,https://st-josephsansdell.net/community/bell-ringers/,Lancashire Association,SD348280,FY8 4EP,Thu 19:00,16 Oct 2015,John Taylor & Co,2015,II,1219459,,,0115,LYTHAM RCA,53.74511,-2.98931
15317,5318,Full-circle ring,Ansford,,,S Andrew,,N,S Andrew,,,Somerset,Somerset,England,Somerset,GB,Bath and Wells,51.09434,-2.51806,6,,,588,app,B,1014.0,P,GF,T,,,http://bath-wells.org/towerselect.php?DoveID=ANSFORD,Bath and Wells Diocesan Association,ST638329,BA7 7LD,,1992,Robert Parker,2010,II*,1307553,601061,178,0116,ANSFORD,,
13078,3079,Full-circle ring,Ansley,Church End,,S Lawrence,,N,S Lawrence,Church End,,Warwickshire,Warwickshire,England,Warwickshire,GB,Coventry,52.53076,-1.57393,6,,,928,,G♯,814.0,P,,,,,http://warksbells.co.uk/ansley/,Coventry Diocesan Guild,SP290926,CV10 0QR,Tue,,,,II*,1365141,611060,3703,0117,ANSLEY,,
17928,9512,Chime,Anslow,,,Holy Trinity,,N,Holy Trinity,,,Staffordshire,Staffordshire,England,Staffordshire,GB,Lichfield,52.82172,-1.70802,1,,,550,,,,P,,,,,,,SK197249,DE13 9QT,,,,,II,1038483,620428,7129,,,,
11971,1972,Full-circle ring,Anstey,,,S George,,N,S George,,,Hertfordshire,Hertfordshire,England,Hertfordshire,GB,St Albans,51.97676,0.04317,6,,,1008,app,G,776.5,P,GF,,,Rung from chancel; not well in tune. ,http://www.hcacr.org.uk/bstortford/anstey/index.html,Hertford County Association,TL404328,SG9 0BY,Tue,,,,I,1101870,632080,11219,0118,ANSTEY HTS,,
13745,3746,Full-circle ring,Anstey,,,S Mary,,N,S Mary,,,Leicestershire,Leicestershire,England,Leicestershire,GB,Leicester,52.67199,-1.18901,8,,,1180,,G,795.0,P,GF,,,,,Leicester Diocesan Guild,SK549085,LE7 7AB,Wed 20:00,,,,II,1074664,619320,6754,0119,ANSTEY LCS,52.67225,-1.18833
14765,4766,Chime,Ansty,,,S James,,N,S James,,,Warwickshire,Warwickshire,England,Warwickshire,GB,Coventry,52.44970,-1.41341,4,,,532,app,D,1130.5,C,,,,Restoration work under way. ,http://warksbells.co.uk/ansty/,Coventry Diocesan Guild,SP399836,CV7 9HZ,,,John Taylor & Co,,II*,1034889,611062,3704,6462,ANSTY,,
17930,9514,Chime,Ansty,,,former ch of S John,former ch,N,S John,,,West Sussex,West Sussex,England,Sussex,GB,Chichester,50.99468,-0.16191,1,,,,,,,P,,,,,,,TQ290233,,,,,,,,610155,15707,,,,
17929,9513,Chime,Ansty,,,S James,,N,S James,,,Wiltshire,Wiltshire,England,Wiltshire,GB,Salisbury,51.03602,-2.06339,1,,,,,,,P,,,,,,,ST956262,SP3 5QB,,,,,II,1130713,634372,12378,,,,
17931,9515,Chime,Antingham,,,S Mary,,N,S Mary,,,Norfolk,Norfolk,England,Norfolk,GB,Norwich,52.84592,1.34359,1,,,,,,,P,,,,,,,TG252328,NR28 0NL,,,,,I,1373433,626145,8754,,,,
15783,5784,Full-circle ring,Antony,,,S James Gt,,N,S James Gt,,,Cornwall,Cornwall,England,Cornwall,GB,Truro,50.36927,-4.25369,6,,,1078,,A♭,,P,GF,,,,,East Cornwall Bellringers Association,SX398545,PL11 3AQ,,1903,Mears & Stainbank,,I,1140708,639266,13735,0120,ANTONY,50.36970,-4.25365
14034,4035,Full-circle ring,Anwick,,,S Edith,,N,S Edith,,,Lincolnshire,Lincolnshire,England,Lincolnshire,GB,Lincoln,53.04144,-0.33925,3,,,700,app,C,,P,GF,,,Tuning: 1-3 of 5. ,,,TF114506,NG34 9SS,,,,,I,1061829,621210,16408,6255,ANWICK,,
17654,7656,Chime,Apethorpe,,,S Leonard,,N,S Leonard,,,Northamptonshire,Northamptonshire,England,Northamptonshire,GB,Peterborough,52.54951,-0.48984,1,,,896,app,A♭,,P,,,,,,,TL024957,,,,,,I,1371995,628300,10363,0121,APETHORPE,,
17932,9516,Chime,Apley,,,S Andrew,,N,S Andrew,,,Lincolnshire,Lincolnshire,England,Lincolnshire,GB,Lincoln,53.26132,-0.33874,1,,,,,,,P,,,,,,,TF109751,LN8 5JQ,,,,,,,621639,16834,,,,
17933,9517,Chime,Apperley,,,Holy Trinity,,N,Holy Trinity,,,Gloucestershire,Gloucestershire,England,Gloucestershire,GB,Gloucester,51.95105,-2.20294,1,,,,,,,P,,,,,,,SO861280,GL19 4DQ,,,,,,,616213,5645,,,,
13965,3966,Full-circle ring,Appleby,,,S Lawrence,,N,S Lawrence,,,Cumbria,Cumbria,England,Westmorland,GB,Carlisle,54.57814,-2.49170,6,,,1049,,A♭,833.0,C,,T,,,https://bellringingincumbria.com/towers/appleby-in-westmorland/,Carlisle Diocesan Guild,NY683204,CA16 6QW,Mon (alt),1989,,,I,1312067,607003,1865,0122,APPLEBY CU,,
10816,817,Full-circle ring,Appleby,,,S Bartholomew,,N,S Bartholomew,,,Lincolnshire,Lincolnshire,England,Lincolnshire,GB,Lincoln,53.62333,-0.56049,6,u/r,,1120,app,G,783.5,P,,,,Unringable. ,,Lincoln Diocesan Guild,SE953150,DN15 0AH,,1921,Mears & Stainbank,,II*,1083728,621347,16545,0123,APPLEBY LI,,
16424,6425,Full-circle ring,Appleby Magna,,,S Michael & All Angels,,N,S Michael & All Angels,,,Leicestershire,Leicestershire,England,Leicestershire,GB,Leicester,52.68545,-1.53555,6,,,1262,,F♯,750.0,C,,,,Anticlockwise. ,http://www.applebymagna.org.uk/appleby_history/misc_bells.htm,Leicester Diocesan Guild,SK314098,DE12 7AA,Mon (1st: other Mons at Swepstone),1974,John Taylor & Co,,II*,1177814,619342,6774,0124,APPLEBYMAG,,
14776,4777,Full-circle ring,Appledore,,,S Mary,,N,S Mary,,,Devon,Devon,England,Devon,GB,Exeter,51.05459,-4.19324,8,,,1230,,G,784.0,P,GF,,,,,,SS463306,EX39 1RJ,Mon,,,,II,1104753,615445,5251,0125,APPLEDORED,,
13579,3580,Full-circle ring,Appledore,,,S Peter & S Paul,,N,S Peter & S Paul,,,Kent,Kent,England,Kent,GB,Canterbury,51.02958,0.79020,8,,,1359,,G,,P,,,,,http://kent.lovesguide.com/tower.php?id=5 http://kcacr.org.uk/ashford-district/towers/towers-details/#Appledore,Kent County Association,TQ957292,TN26 2DA,Fri,,,,I,1071031,606262,1766,0126,APPLEDOREK,,
15700,5701,Full-circle ring,Appleford,,,S Peter & S Paul,,N,S Peter & S Paul,,,Oxfordshire,Oxfordshire,England,Berkshire,GB,Oxford,51.63966,-1.23509,6,u/r,,896,app,A,,P,,,,Unringable. ,,Oxford Diocesan Guild,SU530937,OX14 4PA,,,,,II,1052766,627299,9548,0127,APPLEFORD,,
17934,9519,Chime,Appleshaw,,,S Peter,,N,S Peter,,,Hampshire,Hampshire,England,Hampshire,GB,Winchester,51.23956,-1.56631,2,,,,,,,P,,,,,,,SU303490,SP11 9BE,,,,,II,1279202,641054,14084,,,,
12653,2654,Full-circle ring,Appleton,,,S Laurence,,N,S Laurence,,,Oxfordshire,Oxfordshire,England,Berkshire,GB,Oxford,51.71084,-1.35904,10,,,1466,,E,670.5,C,,T,,,,Oxford Diocesan Guild,SP443015,OX13 5JU,Fri,,,,II*,1048421,627300,9549,0128,APPLETON,,
14832,4833,Full-circle ring,Appleton,,"Appleton, Workshop Campanile",Workshop Campanile (The Balscote Ring),,N,Workshop Campanile (The Balscote Ring),,,Oxfordshire,Oxfordshire,England,Berkshire,GB,Private Ownership,51.71349,-1.35950,12,,2#+4#+5#+6b+8#+9#,184,,B♭,1840.0,P,GF,,,Bell not hung: 6b. ,http://www.inspirewebdesign.com/ringsof12/tower_details.asp?towerid=17,Oxford Diocesan Guild,SP443018,OX13 5JJ,,,,,None,None,,,6049,APPLETON B,,
12031,2032,Full-circle ring,Appleton le Moors,,,Christ Church,,N,Christ Church,,,North Yorkshire,North Yorkshire,England,Yorkshire,GB,York,54.28320,-0.87272,6,u/r,,662,,B♭,933.0,C,,,,Unringable; Ellacombe apparatus. ,,Yorkshire Association,SE734880,YO62 6TF,,,,,I,1173545,643462,15138,0129,APPLETONLM,,
17935,9520,Chime,Appleton le Street,,,All Saints,,N,All Saints,,,North Yorkshire,North Yorkshire,England,Yorkshire,GB,York,54.15280,-0.87707,2,,,560,app,C,1041.0,C,,,,,,,SE734735,YO17 6TP,,,,,I,1296551,643101,14808,,,,
17936,9521,Chime,Appleton Roebuck,,,All Saints,,N,All Saints,,,North Yorkshire,North Yorkshire,England,Yorkshire,GB,York,53.87344,-1.15783,2,,,160,,,,P,,,,,,,SE554422,YO23 7DJ,,,,,II,1167884,643005,14715,,,,
17937,9522,Chime,Appleton Thorn,,,S Cross,,N,S Cross,,,Cheshire,Cheshire,England,Cheshire,GB,Chester,53.35033,-2.54560,1,,,328,,G♯,,P,,,,,,,SJ637838,WA4 5NS,,,,,II,1139338,609065,2850,,,,
17938,9523,Chime,Appletreewick,,,S John,,N,S John,,,North Yorkshire,North Yorkshire,England,Yorkshire,GB,Leeds,54.03703,-1.91837,1,,,,,,,P,,,,,,,SE054601,BD23 6DB,,,,,II,1301586,646028,1279,,,,
14572,4573,Full-circle ring,Apsley End,,,S Mary,,N,S Mary,,,Hertfordshire,Hertfordshire,England,Hertfordshire,GB,St Albans,51.73465,-0.46611,6,,,1481,,F,706.2,C,,,,,http://www.hcacr.org.uk/western/aend/index.html,Hertford County Association,TL060051,HP3 9ST,Mon 20:00,8 Feb 2013,Whites of Appleton,2012,II,1067764,632048,11191,0130,APSLEY END,,
17939,9524,Chime,Apuldram,,,S Mary V,,N,S Mary V,,,West Sussex,West Sussex,England,Sussex,GB,Chichester,50.82371,-0.80654,2,,,,,,,P,,,,,,,SU841033,PO20 7EG,,,,,I,1026474,610052,3201,,,,
11546,1547,Full-circle ring,Arborfield,,,S Bartholomew,,N,S Bartholomew,,,Berkshire,Berkshire,England,Berkshire,GB,Oxford,51.40432,-0.91194,6,,,1312,,G,767.5,C,,T,,,http://www.arborfieldbells.org.uk/,Oxford Diocesan Guild,SU757678,RG2 9JA,Fri,1960,John Taylor & Co,,II,1135983,627479,9713,0131,ARBORFIELD,51.40389,-0.91168
17940,9525,Chime,Arbory,,,S Columba,,N,S Columba,,,Isle of Man,,Isle of Man,,IM,Sodor and Man,54.10062,-4.68217,2,,,,,,,P,,,,Steel bell: Disused. ,,,SC247705,,,,,,,,636003,17374,,,,
12211,2212,Full-circle ring,Ardeley,,,S Lawrence,,N,S Lawrence,,,Hertfordshire,Hertfordshire,England,Hertfordshire,GB,St Albans,51.92744,-0.09913,6,,,1064,app,A♭,,P,GF,,,,http://www.hcacr.org.uk/northern/ardeley/index.html,Hertford County Association,TL308271,SG2 7AG,,1931,Mears & Stainbank,,I,1174231,632081,11220,0132,ARDELEY,,
11854,1855,Full-circle ring,Ardingly,,,S Peter,,N,S Peter,,,West Sussex,West Sussex,England,Sussex,GB,Chichester,51.05214,-0.09006,6,,,879,,B♭,938.0,C,,,,,,Sussex County Association,TQ339298,RH17 6UW,Fri (alternates with West Hoathly) 10:00,2010,Whitechapel Bell Foundry,2010,I,1286656,610151,3283,0133,ARDINGLY,,
10400,401,Full-circle ring,Ardington,,,Holy Trinity,,N,Holy Trinity,,,Oxfordshire,Oxfordshire,England,Berkshire,GB,Oxford,51.59211,-1.37844,6,u/r,,725,,A,873.0,P,GF,,,Unringable. ,,Oxford Diocesan Guild,SU431883,OX12 8QA,,,,,II*,1048189,627544,9776,0134,ARDINGTON,,
13251,3252,Full-circle ring,Ardleigh,,,S Mary V,,N,S Mary V,,,Essex,Essex,England,Essex,GB,Chelmsford,51.92654,0.98554,8,,,1486,,F♯,723.0,C,,T,,ART Teaching Centre: Ardleigh Ringing School. ,,Essex Association,TM053295,CO7 7LE,,,,,II*,1112060,608486,2631,0135,ARDLEIGH,,
17941,9526,Chime,Ardley,,,S Mary,,N,S Mary,,,Oxfordshire,Oxfordshire,England,Oxfordshire,GB,Oxford,51.94221,-1.21232,2,,,,,,,P,,,,,,,SP542273,OX27 7NR,,,,,II*,1046881,627030,9288,,,,
17942,9527,Chime,Ardsley,,,Christ Church,,N,Christ Church,,,South Yorkshire,South Yorkshire,England,Yorkshire,GB,Sheffield,53.54582,-1.42721,1,,,185,,G♯,1649.0,P,,,,,,,SE380056,S71 5EF,,,,,,,635213,12782,,,,
17943,9528,Full-circle ring,Ardwick,,,S Benedict,,N,S Benedict,,,Greater Manchester,Greater Manchester,England,Lancashire,GB,Manchester,53.46929,-2.20381,1,u/r,,921,,B,,P,,,,Unringable. ,,,SJ865969,,,,,,II*,1207939,624005,16987,,,,
17944,9529,Chime,Ardwick,,,S Jerome,,N,S Jerome,,,Greater Manchester,Greater Manchester,England,Lancashire,GB,Manchester,53.47677,-2.20660,1,,,235,,,,P,,,,,,,SJ863978,,,,,,,,624006,16988,,,,
10768,769,Full-circle ring,Areley Kings,,,S Bartholomew,,N,S Bartholomew,,,Worcestershire,Worcestershire,England,Worcestershire,GB,Worcester,52.33685,-2.29200,6,,,927,,B♭,942.5,P,,T,,,http://www.wdcra.org.uk/areley.htm,Worcestershire and Districts Association,SO802710,DY13 0TB,Thu 18:45,,,,II*,1209472,642261,14665,0136,ARELEY KIN,,
17945,9530,Chime,Arkendale,,,S Bartholomew,,N,S Bartholomew,,,North Yorkshire,North Yorkshire,England,Yorkshire,GB,Leeds,54.04359,-1.40779,1,,,,,,,P,,,,,,,SE388610,HG5 0QT,,,,,,,646029,10794,,,,
13022,3023,Full-circle ring,Arkesden,,,S Mary V,,N,S Mary V,,,Essex,Essex,England,Essex,GB,Chelmsford,51.99012,0.15719,6,,,635,,G♯,810.7,C,,,,,,Essex Association,TL482346,CB11 4HB,Wed 20:30,,,,II*,1170054,608546,2684,0137,ARKESDEN,,
17946,9531,Chime,Arkholme,,,S John,,N,S John,,,Lancashire,Lancashire,England,Lancashire,GB,Blackburn,54.14061,-2.63047,1,,,,,,,P,,,,,,,SD589718,LA6 1AY,,,,,II*,1071728,603296,1126,,,,
17947,9532,Chime,Arkley,,,S Peter,,N,S Peter,,,Greater London,Greater London,England,Hertfordshire,GB,St Albans,51.64734,-0.23208,1,,,226,,,,P,,,,,,,TQ224957,EN5 3JF,,,,,II,1078860,632018,11163,,,,
13336,3337,Full-circle ring,Arklow,,,S Saviour,,N,S Saviour,,,"Wicklow, Republic of Ireland",Wicklow,Island of Ireland,,IE,Dublin and Glendalough,52.79818,-6.16296,8,,,2539,,E,660.0,C,,,,,https://bellringingireland.org/tower/arklow-st-saviour/,Irish Association,T239734,Y14 XK15,,,,,Listed,16322001,,,5910,ARKLOW,,
15794,5795,Full-circle ring,Arksey,,,All Saints,,N,All Saints,,,South Yorkshire,South Yorkshire,England,Yorkshire,GB,Sheffield,53.55578,-1.12709,8,,,1112,,F♯,749.0,C,,,,,,Yorkshire Association,SE579069,DN5 0SE,"Thu (4th, 5th: other weeks at Barnby Dun) 18:00",,,,I,1191878,635142,12719,0138,ARKSEY,,
12524,2525,Full-circle ring,Arlecdon,,,S Michael,,N,S Michael,,,Cumbria,Cumbria,England,Cumberland,GB,Carlisle,54.56501,-3.46752,8,,,1603,,F♯,730.0,C,,,,Ringing discontinued while restoration work under way. ,https://bellringingincumbria.com/towers/arlecdon/,Carlisle Diocesan Guild,NY052198,CA14 4RY,,,Local labour/guild/assn,,II,1086721,607269,2098,0139,ARLECDON,,
16001,6002,Full-circle ring,Arlesey,,,S Peter,,N,S Peter,,,Bedfordshire,Bedfordshire,England,Bedfordshire,GB,St Albans,52.02347,-0.26452,6,,,1219,,G,783.5,C,,,,,,Bedfordshire Association,TL191375,SG15 6UN,Fri,1915,Webb and Bennett,,I,1113817,632398,11524,0140,ARLESEY,,
14860,4861,Full-circle ring,Arley,,,S Wilfrid,,N,S Wilfrid,Old Arley,,Warwickshire,Warwickshire,England,Warwickshire,GB,Coventry,52.51271,-1.58431,6,,,796,,A,874.0,P,GF,,,,http://warksbells.co.uk/arley/,Coventry Diocesan Guild,SP283906,CV7 8RD,,,,,II*,1034773,611063,3705,0141,ARLEY,,
15678,5679,Full-circle ring,Arlingham,,,S Mary V,,N,S Mary V,,,Gloucestershire,Gloucestershire,England,Gloucestershire,GB,Gloucester,51.79383,-2.42702,6,,,1344,app,G,786.0,C,,,,Anticlockwise. ,http://www.bagleybells.co.uk/towers/glos.htm#ARLINGHAM https://www.bellsgandb.org.uk/cgi-bin/makepage.cgi?b=7#175,Gloucester and Bristol Diocesan Association,SO706106,GL2 7JL,,,,,I,1340704,616179,5615,0142,ARLINGHAM,,
12237,2238,Full-circle ring,Arlington,,,S James,,N,S James,,,Devon,Devon,England,Devon,GB,Exeter,51.14672,-3.98461,6,,,1232,app,G♯,815.5,P,,,,,,,SS612404,EX31 4LP,,,,,II*,1106820,615476,5280,0143,ARLINGTOND,51.14703,-3.98326
14570,4571,Full-circle ring,Arlington,,,S Pancras,,N,S Pancras,,,East Sussex,East Sussex,England,Sussex,GB,Chichester,50.84616,0.19000,3,u/r,,784,app,,,P,GF,,,Unringable. ,,,TQ542074,BN26 6SE,,,,,I,1353287,610430,3538,7616,ARLINGTONS,,
17778,9276,Carillon,Armagh,,Armagh RC Cath,Cath Ch of S Patrick,Cath Ch,Y,S Patrick,,,"Armagh, Northern Ireland",Armagh,Island of Ireland,,GB,Armagh,54.35235,-6.65882,39,,,4830,,C,524.5,P,,T,,,https://carillonsbi.org/st-patricks-roman-catholic-cathedral/,,H872456,BT61 7QX,,,,,A,9142,,,,,,
17948,9533,Chime,Armathwaite,,,Christ Church,,N,Christ Church,,,Cumbria,Cumbria,England,Cumberland,GB,Carlisle,54.80822,-2.77012,2,,,,,,,P,,,,,,,NY505462,CA4 9PB,,,,,II,1145497,607121,1967,,,,
10850,851,Full-circle ring,Armidale,,Armidale Cath,Cath Ch of S Peter,Cath Ch,Y,S Peter,,,"New South Wales, Australia",New South Wales,Australia,,AU,Armidale,-30.51499,151.66496,8,,,791,,B♭,932.5,P,,,T,,http://www.anzab.org.au/towers.php?tower=ARM,Australian and New Zealand Association,,,Thu 17:30,,,1996,,,,,5992,ARMIDALE,,
17949,9534,Chime,Arminghall,,,S Mary,,N,S Mary,,,Norfolk,Norfolk,England,Norfolk,GB,Norwich,52.58992,1.32373,1,,,328,,,,P,,,,,,,TG252043,NR14 8SF,,,,,II,1373154,626335,8939,,,,
16980,6981,Full-circle ring,Armitage,,,S John Bapt,,N,S John Bapt,,,Staffordshire,Staffordshire,England,Staffordshire,GB,Lichfield,52.74597,-1.88725,6,,,524,,C,1038.0,P,GF,T,T,,,Lichfield and Walsall Archdeaconries Society,SK077164,WS15 4BA,Mon,,,,II*,1374295,620068,6836,6173,ARMITAGE,52.74561,-1.88666
12478,2479,Full-circle ring,Armitage Bridge,,,S Paul,,N,S Paul,,,West Yorkshire,West Yorkshire,England,Yorkshire,GB,Leeds,53.61963,-1.79862,6,,,1084,,G,789.0,P,,T,,,,Yorkshire Association,SE134136,HD4 7PN,Wed,1998,John Taylor & Co,,II,1238909,646031,13855,0144,ARMITAGEBR,53.61905,-1.79843
25120,17088,Chime,Armley,,,S Bartholomew,,N,S Bartholomew,,,West Yorkshire,West Yorkshire,England,Yorkshire,GB,Leeds,53.79448,-1.58708,1,,,420,app,,,P,,,,,,,SE272332,LS12 1SR,,,,,II*,1255697,646033,10775,,,,
17950,9535,Chime,Armthorpe,,,S Leonard & S Mary,,N,S Leonard & S Mary,,,South Yorkshire,South Yorkshire,England,Yorkshire,GB,Sheffield,53.53700,-1.06309,3,,,377,,,,P,,,,,,,SE621048,DN3 3AN,,,,,II,1314821,635143,12720,,,,
13810,3811,Full-circle ring,Arncliffe,,,S Oswald,,N,S Oswald,,,North Yorkshire,North Yorkshire,England,Yorkshire,GB,Leeds,54.14369,-2.10404,3,,,1680,app,F♯,733.5,C,GF,,,"Tuning: 1,2♭,3 of 3. ",,,SD933719,BD23 5QB,,1922,John Taylor & Co,,II,1132236,646034,1272,6228,ARNCLIFFE,,
17951,9536,Chime,Arne,,,S Nicholas,,N,S Nicholas,,,Dorset,Dorset,England,Dorset,GB,Salisbury,50.69278,-2.04047,1,,,672,app,C,,P,,,,,,,SY972881,BH20 5BJ,,,,,I,1323421,634291,12302,,,,
13993,3994,Full-circle ring,Arnesby,,,S Peter,,N,S Peter,,,Leicestershire,Leicestershire,England,Leicestershire,GB,Leicester,52.52389,-1.09192,6,,,785,,A,870.0,P,,T,,,,Leicester Diocesan Guild,SP617921,LE8 5UU,,,,,II*,1178306,619244,6680,0145,ARNESBY,,
17152,7153,Full-circle ring,Arnold,,,S Mary,,N,S Mary,,,Nottinghamshire,Nottinghamshire,England,Nottinghamshire,GB,Southwell and Nottingham,53.00941,-1.12706,8,,,961,,A,897.0,C,,T,,,,Southwell and Nottingham Diocesan Guild,SK586461,NG5 8HG,Thu,,,,II*,1235987,638264,13420,0146,ARNOLD,,
17952,9537,Chime,Arnside,,,S James,,N,S James,,,Cumbria,Cumbria,England,Westmorland,GB,Carlisle,54.20181,-2.83160,1,,,137,,B,1948.0,P,,,,,,,SD458787,LA5 0DJ,,,,,,,607199,2036,,,,
13492,3493,Full-circle ring,Arreton,,,S George,,N,S George,,,Isle of Wight,Isle of Wight,England,Hampshire,GB,Portsmouth,50.67803,-1.24517,6,,,952,,A♭,840.5,P,GF,,,,http://www.noyes.org.uk/iw/towers/arreton.htm https://www.wpbells.org/towers/arreton/,Winchester and Portsmouth Diocesan Guild,SZ534867,PO30 3AB,Mon,2001,Nicholson Engineering Ltd,,I,1209193,629122,10564,0147,ARRETON,,
17953,9538,Chime,Arrington,,,S Nicholas,,N,S Nicholas,,,Cambridgeshire,Cambridgeshire,England,Cambridgeshire,GB,Ely,52.13514,-0.06525,1,,,,,B,987.0,P,,,,,,,TL325503,SG8 0BG,,,,,I,1128196,614134,4627,,,,
17954,9539,Chime,Arrow,,,Holy Trinity,,N,Holy Trinity,,,Warwickshire,Warwickshire,England,Warwickshire,GB,Coventry,52.20657,-1.88055,1,,,311,,E,1307.0,C,,,,,,,SP082564,B49 5PP,,,,,II,1024724,611129,3764,,,,
14160,4161,Full-circle ring,Arthingworth,,,S Andrew,,N,S Andrew,,,Northamptonshire,Northamptonshire,England,Northamptonshire,GB,Peterborough,52.42556,-0.89168,6,,,1216,,F♯,760.0,P,,,,,,Peterborough Diocesan Guild,SP754814,LE16 8NJ,Wed (alt),,,,II*,1067030,628037,10113,0148,ARTHINGWOR,,
